{
  "generated_at": "2026-07-15T06:04:15.324Z",
  "tolerance_m": 200,
  "station_count": 2637,
  "snapped_count": 2543,
  "unsnapped_count": 94,
  "results": [
    {
      "crs": "AAP",
      "name": "Alexandra Palace Rail Station",
      "lat": 51.59792399595,
      "lon": -0.12023513932,
      "snapped": true,
      "distance_m": 2.6,
      "segment_id": 3710,
      "snap_point": [
        -0.120203,
        51.597937
      ]
    },
    {
      "crs": "AAT",
      "name": "Achanalt Rail Station",
      "lat": 57.60959583643,
      "lon": -4.91385125753,
      "snapped": true,
      "distance_m": 0.1,
      "segment_id": 2845,
      "snap_point": [
        -4.913851,
        57.609595
      ]
    },
    {
      "crs": "ABA",
      "name": "Aberdare Rail Station",
      "lat": 51.71505790608,
      "lon": -3.44308344608,
      "snapped": true,
      "distance_m": 138.2,
      "segment_id": 1477,
      "snap_point": [
        -3.441439,
        51.714344
      ]
    },
    {
      "crs": "ABC",
      "name": "Altnabreac Rail Station",
      "lat": 58.38814827615,
      "lon": -3.70628021863,
      "snapped": true,
      "distance_m": 3.9,
      "segment_id": 2510,
      "snap_point": [
        -3.706232,
        58.388124
      ]
    },
    {
      "crs": "ABD",
      "name": "Aberdeen Rail Station",
      "lat": 57.14370402316,
      "lon": -2.0986851221,
      "snapped": true,
      "distance_m": 27.1,
      "segment_id": 3747,
      "snap_point": [
        -2.09905,
        57.143561
      ]
    },
    {
      "crs": "ABE",
      "name": "Aber Rail Station",
      "lat": 51.5749655354,
      "lon": -3.22982847743,
      "snapped": true,
      "distance_m": 1.9,
      "segment_id": 2046,
      "snap_point": [
        -3.229853,
        51.574958
      ]
    },
    {
      "crs": "ABH",
      "name": "Abererch Rail Station",
      "lat": 52.89858306624,
      "lon": -4.37417543673,
      "snapped": true,
      "distance_m": 10.2,
      "segment_id": 5921,
      "snap_point": [
        -4.374139,
        52.898493
      ]
    },
    {
      "crs": "ABW",
      "name": "Abbey Wood (London) Rail Station",
      "lat": 51.49106246827,
      "lon": 0.12139411536,
      "snapped": true,
      "distance_m": 2.3,
      "segment_id": 2522,
      "snap_point": [
        0.121392,
        51.491083
      ]
    },
    {
      "crs": "ABX",
      "name": "Abbey Wood",
      "lat": null,
      "lon": null,
      "snapped": null,
      "distance_m": null,
      "segment_id": null,
      "snap_point": null
    },
    {
      "crs": "ABY",
      "name": "Ashburys Rail Station",
      "lat": 53.47163781038,
      "lon": -2.19443633042,
      "snapped": true,
      "distance_m": 17.6,
      "segment_id": 1537,
      "snap_point": [
        -2.194409,
        53.471796
      ]
    },
    {
      "crs": "ACB",
      "name": "Acton Bridge Rail Station",
      "lat": 53.26650719553,
      "lon": -2.6031265241,
      "snapped": true,
      "distance_m": 2.8,
      "segment_id": 3386,
      "snap_point": [
        -2.603153,
        53.266488
      ]
    },
    {
      "crs": "ACC",
      "name": "Acton Central Rail Station",
      "lat": 51.50871627818,
      "lon": -0.26297061476,
      "snapped": true,
      "distance_m": 9.8,
      "segment_id": 4375,
      "snap_point": [
        -0.262831,
        51.5087
      ]
    },
    {
      "crs": "ACG",
      "name": "Acocks Green Rail Station",
      "lat": 52.44932277674,
      "lon": -1.81897541144,
      "snapped": true,
      "distance_m": 4.6,
      "segment_id": 953,
      "snap_point": [
        -1.818935,
        52.449356
      ]
    },
    {
      "crs": "ACH",
      "name": "Achnashellach Rail Station",
      "lat": 57.4820742655,
      "lon": -5.33305525596,
      "snapped": true,
      "distance_m": 0.7,
      "segment_id": 2828,
      "snap_point": [
        -5.333057,
        57.48208
      ]
    },
    {
      "crs": "ACK",
      "name": "Acklington Rail Station",
      "lat": 55.3070982414,
      "lon": -1.65183461346,
      "snapped": true,
      "distance_m": 0.3,
      "segment_id": 3660,
      "snap_point": [
        -1.651831,
        55.307098
      ]
    },
    {
      "crs": "ACL",
      "name": "Acle Rail Station",
      "lat": 52.63468201731,
      "lon": 1.54391527585,
      "snapped": false,
      "distance_m": 12431.5,
      "segment_id": 442,
      "snap_point": [
        1.399873,
        52.704642
      ]
    },
    {
      "crs": "ACN",
      "name": "Achnasheen Rail Station",
      "lat": 57.57928965421,
      "lon": -5.07233213915,
      "snapped": true,
      "distance_m": 0.9,
      "segment_id": 2846,
      "snap_point": [
        -5.072322,
        57.579284
      ]
    },
    {
      "crs": "ACR",
      "name": "Accrington Rail Station",
      "lat": 53.75297118076,
      "lon": -2.36954777807,
      "snapped": true,
      "distance_m": 1.1,
      "segment_id": 3214,
      "snap_point": [
        -2.369556,
        53.75298
      ]
    },
    {
      "crs": "ACT",
      "name": "Ascot Rail Station",
      "lat": 51.40624365202,
      "lon": -0.6758331694,
      "snapped": true,
      "distance_m": 5.8,
      "segment_id": 5107,
      "snap_point": [
        -0.675856,
        51.406194
      ]
    },
    {
      "crs": "ACY",
      "name": "Abercynon Rail Station",
      "lat": 51.643449909,
      "lon": -3.32856986148,
      "snapped": true,
      "distance_m": 8,
      "segment_id": 1460,
      "snap_point": [
        -3.328655,
        51.643499
      ]
    },
    {
      "crs": "ADC",
      "name": "Adlington (Cheshire) Rail Station",
      "lat": 53.31955397865,
      "lon": -2.13356247282,
      "snapped": true,
      "distance_m": 7.2,
      "segment_id": 3480,
      "snap_point": [
        -2.133669,
        53.319565
      ]
    },
    {
      "crs": "ADD",
      "name": "Adderley Park Rail Station",
      "lat": 52.4830859425,
      "lon": -1.85594442017,
      "snapped": true,
      "distance_m": 4.9,
      "segment_id": 1898,
      "snap_point": [
        -1.855935,
        52.483042
      ]
    },
    {
      "crs": "ADK",
      "name": "Ardwick Rail Station",
      "lat": 53.47154982765,
      "lon": -2.21432180977,
      "snapped": true,
      "distance_m": 2.1,
      "segment_id": 1577,
      "snap_point": [
        -2.214306,
        53.471566
      ]
    },
    {
      "crs": "ADL",
      "name": "Adlington (Lancs) Rail Station",
      "lat": 53.61324428059,
      "lon": -2.60307081313,
      "snapped": true,
      "distance_m": 0.3,
      "segment_id": 3376,
      "snap_point": [
        -2.603074,
        53.613243
      ]
    },
    {
      "crs": "ADM",
      "name": "Adisham Rail Station",
      "lat": 51.24120153594,
      "lon": 1.19908926763,
      "snapped": true,
      "distance_m": 8.5,
      "segment_id": 4669,
      "snap_point": [
        1.198993,
        51.241154
      ]
    },
    {
      "crs": "ADN",
      "name": "Ardrossan Town Rail Station",
      "lat": 55.63970646967,
      "lon": -4.81267519968,
      "snapped": true,
      "distance_m": 2.2,
      "segment_id": 5831,
      "snap_point": [
        -4.812706,
        55.639716
      ]
    },
    {
      "crs": "ADR",
      "name": "Airdrie Rail Station",
      "lat": 55.86397879776,
      "lon": -3.98291206378,
      "snapped": true,
      "distance_m": 1,
      "segment_id": 2434,
      "snap_point": [
        -3.982911,
        55.863969
      ]
    },
    {
      "crs": "ADS",
      "name": "Ardrossan Harbour Rail Station",
      "lat": 55.63987223045,
      "lon": -4.82111037688,
      "snapped": true,
      "distance_m": 128,
      "segment_id": 5831,
      "snap_point": [
        -4.819455,
        55.639198
      ]
    },
    {
      "crs": "ADV",
      "name": "Andover Rail Station",
      "lat": 51.21154688023,
      "lon": -1.49223291317,
      "snapped": true,
      "distance_m": 19.3,
      "segment_id": 1090,
      "snap_point": [
        -1.492392,
        51.21169
      ]
    },
    {
      "crs": "ADW",
      "name": "Addiewell Rail Station",
      "lat": 55.8434089458,
      "lon": -3.60652641249,
      "snapped": true,
      "distance_m": 0.7,
      "segment_id": 3322,
      "snap_point": [
        -3.606522,
        55.843403
      ]
    },
    {
      "crs": "AFK",
      "name": "Ashford International Rail Station",
      "lat": 51.14370585721,
      "lon": 0.87619737944,
      "snapped": true,
      "distance_m": 26.9,
      "segment_id": 2595,
      "snap_point": [
        0.875971,
        51.143509
      ]
    },
    {
      "crs": "AFS",
      "name": "Ashford (Surrey) Rail Station",
      "lat": 51.43650719705,
      "lon": -0.46807091587,
      "snapped": true,
      "distance_m": 0.5,
      "segment_id": 2996,
      "snap_point": [
        -0.468073,
        51.436512
      ]
    },
    {
      "crs": "AFV",
      "name": "Ansdell & Fairhaven Rail Station",
      "lat": 53.74146228451,
      "lon": -2.99303395065,
      "snapped": false,
      "distance_m": 7231.2,
      "segment_id": 4681,
      "snap_point": [
        -2.939245,
        53.798481
      ]
    },
    {
      "crs": "AGL",
      "name": "Abergele & Pensarn Rail Station",
      "lat": 53.29457303057,
      "lon": -3.58262198838,
      "snapped": true,
      "distance_m": 13.9,
      "segment_id": 2155,
      "snap_point": [
        -3.582708,
        53.294688
      ]
    },
    {
      "crs": "AGR",
      "name": "Angel Road Rail Station",
      "lat": 51.61240492759,
      "lon": -0.0487913406,
      "snapped": true,
      "distance_m": 23.8,
      "segment_id": 5161,
      "snap_point": [
        -0.049121,
        51.612465
      ]
    },
    {
      "crs": "AGS",
      "name": "Argyle Street Rail Station",
      "lat": 55.8573039361,
      "lon": -4.25069388384,
      "snapped": true,
      "distance_m": 29.5,
      "segment_id": 2342,
      "snap_point": [
        -4.25062,
        55.857568
      ]
    },
    {
      "crs": "AGT",
      "name": "Aldrington Rail Station",
      "lat": 50.83638383869,
      "lon": -0.18382143408,
      "snapped": true,
      "distance_m": 4.1,
      "segment_id": 84,
      "snap_point": [
        -0.183819,
        50.836421
      ]
    },
    {
      "crs": "AGV",
      "name": "Abergavenny Rail Station",
      "lat": 51.81668982233,
      "lon": -3.0096467989,
      "snapped": true,
      "distance_m": 45,
      "segment_id": 562,
      "snap_point": [
        -3.008996,
        51.816733
      ]
    },
    {
      "crs": "AHD",
      "name": "Ashtead Rail Station",
      "lat": 51.31787379401,
      "lon": -0.30757168547,
      "snapped": true,
      "distance_m": 1,
      "segment_id": 4913,
      "snap_point": [
        -0.307578,
        51.317882
      ]
    },
    {
      "crs": "AHN",
      "name": "Ashton-under-Lyne Rail Station",
      "lat": 53.49127288532,
      "lon": -2.09431227099,
      "snapped": true,
      "distance_m": 7.5,
      "segment_id": 3911,
      "snap_point": [
        -2.094297,
        53.49134
      ]
    },
    {
      "crs": "AHS",
      "name": "Ashurst (Kent) Rail Station",
      "lat": 51.12866279737,
      "lon": 0.15265220319,
      "snapped": true,
      "distance_m": 7.5,
      "segment_id": 4963,
      "snap_point": [
        0.152547,
        51.128647
      ]
    },
    {
      "crs": "AHT",
      "name": "Aldershot Rail Station",
      "lat": 51.24641837711,
      "lon": -0.75985979888,
      "snapped": true,
      "distance_m": 8.7,
      "segment_id": 5049,
      "snap_point": [
        -0.759789,
        51.246354
      ]
    },
    {
      "crs": "AHV",
      "name": "Ash Vale Rail Station",
      "lat": 51.2722469404,
      "lon": -0.72164850871,
      "snapped": true,
      "distance_m": 5.2,
      "segment_id": 5040,
      "snap_point": [
        -0.721711,
        51.272274
      ]
    },
    {
      "crs": "AIG",
      "name": "Aigburth Rail Station",
      "lat": 53.36456492063,
      "lon": -2.92715492547,
      "snapped": true,
      "distance_m": 12.5,
      "segment_id": 2179,
      "snap_point": [
        -2.927056,
        53.364661
      ]
    },
    {
      "crs": "AIN",
      "name": "Aintree Rail Station",
      "lat": 53.47390962432,
      "lon": -2.9562803142,
      "snapped": true,
      "distance_m": 0.1,
      "segment_id": 5671,
      "snap_point": [
        -2.956279,
        53.473909
      ]
    },
    {
      "crs": "AIR",
      "name": "Airbles Rail Station",
      "lat": 55.78283310401,
      "lon": -3.994192441,
      "snapped": true,
      "distance_m": 0.1,
      "segment_id": 2372,
      "snap_point": [
        -3.994192,
        55.782833
      ]
    },
    {
      "crs": "ALB",
      "name": "Albrighton Rail Station",
      "lat": 52.63794224624,
      "lon": -2.26889994437,
      "snapped": true,
      "distance_m": 11.7,
      "segment_id": 696,
      "snap_point": [
        -2.268799,
        52.638028
      ]
    },
    {
      "crs": "ALD",
      "name": "Alderley Edge Rail Station",
      "lat": 53.30378012757,
      "lon": -2.23679906922,
      "snapped": true,
      "distance_m": 6.2,
      "segment_id": 3752,
      "snap_point": [
        -2.236711,
        53.303763
      ]
    },
    {
      "crs": "ALF",
      "name": "Alfreton Rail Station",
      "lat": 53.10043172212,
      "lon": -1.36969607227,
      "snapped": true,
      "distance_m": 8.9,
      "segment_id": 2429,
      "snap_point": [
        -1.369569,
        53.100456
      ]
    },
    {
      "crs": "ALK",
      "name": "Aslockton Rail Station",
      "lat": 52.95154976132,
      "lon": -0.89809752325,
      "snapped": true,
      "distance_m": 0.1,
      "segment_id": 3080,
      "snap_point": [
        -0.898097,
        52.951551
      ]
    },
    {
      "crs": "ALM",
      "name": "Alnmouth Rail Station",
      "lat": 55.39277757806,
      "lon": -1.63663765884,
      "snapped": true,
      "distance_m": 3,
      "segment_id": 3971,
      "snap_point": [
        -1.636672,
        55.39276
      ]
    },
    {
      "crs": "ALN",
      "name": "Althorne Rail Station",
      "lat": 51.6478704748,
      "lon": 0.7524835631,
      "snapped": false,
      "distance_m": 13808.6,
      "segment_id": 5496,
      "snap_point": [
        0.65226,
        51.539817
      ]
    },
    {
      "crs": "ALO",
      "name": "Alloa Rail Station",
      "lat": 56.11778919186,
      "lon": -3.79005562154,
      "snapped": true,
      "distance_m": 5,
      "segment_id": 4419,
      "snap_point": [
        -3.790069,
        56.117834
      ]
    },
    {
      "crs": "ALP",
      "name": "Althorpe Rail Station",
      "lat": 53.58550078559,
      "lon": -0.73318220149,
      "snapped": true,
      "distance_m": 1.6,
      "segment_id": 3513,
      "snap_point": [
        -0.733186,
        53.585515
      ]
    },
    {
      "crs": "ALR",
      "name": "Alresford (Essex) Rail Station",
      "lat": 51.85400078986,
      "lon": 0.9974365883,
      "snapped": true,
      "distance_m": 0.6,
      "segment_id": 3558,
      "snap_point": [
        0.997436,
        51.853995
      ]
    },
    {
      "crs": "ALT",
      "name": "Altrincham Rail Station",
      "lat": 53.38771656569,
      "lon": -2.34688878555,
      "snapped": true,
      "distance_m": 8.6,
      "segment_id": 832,
      "snap_point": [
        -2.347012,
        53.387741
      ]
    },
    {
      "crs": "ALV",
      "name": "Alvechurch Rail Station",
      "lat": 52.34607058592,
      "lon": -1.96766049449,
      "snapped": true,
      "distance_m": 4.1,
      "segment_id": 5856,
      "snap_point": [
        -1.96772,
        52.346065
      ]
    },
    {
      "crs": "ALW",
      "name": "Allens West Rail Station",
      "lat": 54.52462276218,
      "lon": -1.36111669221,
      "snapped": true,
      "distance_m": 0.5,
      "segment_id": 3940,
      "snap_point": [
        -1.361119,
        54.524627
      ]
    },
    {
      "crs": "ALX",
      "name": "Alexandria Rail Station",
      "lat": 55.98508314964,
      "lon": -4.57748423627,
      "snapped": true,
      "distance_m": 0.6,
      "segment_id": 5838,
      "snap_point": [
        -4.577475,
        55.985081
      ]
    },
    {
      "crs": "AMB",
      "name": "Ambergate Rail Station",
      "lat": 53.06051632822,
      "lon": -1.4806974242,
      "snapped": true,
      "distance_m": 11.1,
      "segment_id": 2712,
      "snap_point": [
        -1.480863,
        53.060519
      ]
    },
    {
      "crs": "AMF",
      "name": "Ammanford Rail Station",
      "lat": 51.79597472721,
      "lon": -3.99673488783,
      "snapped": true,
      "distance_m": 4.9,
      "segment_id": 1964,
      "snap_point": [
        -3.996806,
        51.795977
      ]
    },
    {
      "crs": "AML",
      "name": "Acton Main Line Rail Station",
      "lat": 51.51718014558,
      "lon": -0.26675636171,
      "snapped": true,
      "distance_m": 4.8,
      "segment_id": 845,
      "snap_point": [
        -0.266735,
        51.517139
      ]
    },
    {
      "crs": "AMR",
      "name": "Amersham Rail Station",
      "lat": 51.67420579888,
      "lon": -0.60759605596,
      "snapped": true,
      "distance_m": 7.3,
      "segment_id": 4777,
      "snap_point": [
        -0.607621,
        51.674142
      ]
    },
    {
      "crs": "AMT",
      "name": "Aldermaston Rail Station",
      "lat": 51.40196169823,
      "lon": -1.1374238096,
      "snapped": true,
      "distance_m": 0.2,
      "segment_id": 351,
      "snap_point": [
        -1.137425,
        51.401963
      ]
    },
    {
      "crs": "AMY",
      "name": "Amberley Rail Station",
      "lat": 50.89668002212,
      "lon": -0.54199232704,
      "snapped": true,
      "distance_m": 0.7,
      "segment_id": 1427,
      "snap_point": [
        -0.541982,
        50.89668
      ]
    },
    {
      "crs": "ANC",
      "name": "Ancaster Rail Station",
      "lat": 52.98768735647,
      "lon": -0.53562365209,
      "snapped": true,
      "distance_m": 0.7,
      "segment_id": 1519,
      "snap_point": [
        -0.535623,
        52.987681
      ]
    },
    {
      "crs": "AND",
      "name": "Anderston Rail Station",
      "lat": 55.85989696643,
      "lon": -4.27097904299,
      "snapped": true,
      "distance_m": 3.2,
      "segment_id": 2333,
      "snap_point": [
        -4.270985,
        55.859869
      ]
    },
    {
      "crs": "ANF",
      "name": "Ashurst New Forest Rail Station",
      "lat": 50.88985037948,
      "lon": -1.52663069321,
      "snapped": true,
      "distance_m": 8.5,
      "segment_id": 1108,
      "snap_point": [
        -1.526514,
        50.88983
      ]
    },
    {
      "crs": "ANG",
      "name": "Angmering Rail Station",
      "lat": 50.81657531232,
      "lon": -0.48939393986,
      "snapped": true,
      "distance_m": 3.7,
      "segment_id": 1301,
      "snap_point": [
        -0.489395,
        50.816542
      ]
    },
    {
      "crs": "ANL",
      "name": "Anniesland Rail Station",
      "lat": 55.88935027219,
      "lon": -4.32195682994,
      "snapped": true,
      "distance_m": 1.5,
      "segment_id": 2345,
      "snap_point": [
        -4.321934,
        55.889345
      ]
    },
    {
      "crs": "ANN",
      "name": "Annan Rail Station",
      "lat": 54.98383526891,
      "lon": -3.26258045813,
      "snapped": true,
      "distance_m": 37,
      "segment_id": 5797,
      "snap_point": [
        -3.262785,
        54.983522
      ]
    },
    {
      "crs": "ANS",
      "name": "Ainsdale Rail Station",
      "lat": 53.60203225634,
      "lon": -3.04265200904,
      "snapped": true,
      "distance_m": 7.9,
      "segment_id": 5677,
      "snap_point": [
        -3.042546,
        53.601999
      ]
    },
    {
      "crs": "ANZ",
      "name": "Anerley Rail Station",
      "lat": 51.41215298564,
      "lon": -0.06588583993,
      "snapped": true,
      "distance_m": 0.1,
      "segment_id": 76,
      "snap_point": [
        -0.065884,
        51.412152
      ]
    },
    {
      "crs": "AON",
      "name": "Alton Rail Station",
      "lat": 51.15196879112,
      "lon": -0.96691319996,
      "snapped": true,
      "distance_m": 5.3,
      "segment_id": 5073,
      "snap_point": [
        -0.966973,
        51.151998
      ]
    },
    {
      "crs": "APB",
      "name": "Appley Bridge Rail Station",
      "lat": 53.57867074359,
      "lon": -2.71925209845,
      "snapped": true,
      "distance_m": 4.7,
      "segment_id": 5635,
      "snap_point": [
        -2.719285,
        53.578633
      ]
    },
    {
      "crs": "APD",
      "name": "Appledore (Kent) Rail Station",
      "lat": 51.03323728979,
      "lon": 0.81634166033,
      "snapped": true,
      "distance_m": 10,
      "segment_id": 1258,
      "snap_point": [
        0.816466,
        51.033194
      ]
    },
    {
      "crs": "APF",
      "name": "Appleford Rail Station",
      "lat": 51.63964121574,
      "lon": -1.24214140361,
      "snapped": true,
      "distance_m": 17.3,
      "segment_id": 5338,
      "snap_point": [
        -1.242386,
        51.639674
      ]
    },
    {
      "crs": "APG",
      "name": "Aspley Guise Rail Station",
      "lat": 52.02123684616,
      "lon": -0.63233442292,
      "snapped": true,
      "distance_m": 1.2,
      "segment_id": 3248,
      "snap_point": [
        -0.632332,
        52.021226
      ]
    },
    {
      "crs": "APN",
      "name": "Newcastle Airport Metro Station",
      "lat": 55.03594906574,
      "lon": -1.71104650989,
      "snapped": true,
      "distance_m": 4.2,
      "segment_id": 1230,
      "snap_point": [
        -1.711111,
        55.035944
      ]
    },
    {
      "crs": "APP",
      "name": "Appleby Rail Station",
      "lat": 54.58034642846,
      "lon": -2.48669223087,
      "snapped": true,
      "distance_m": 10.4,
      "segment_id": 3149,
      "snap_point": [
        -2.486581,
        54.580415
      ]
    },
    {
      "crs": "APS",
      "name": "Apsley Rail Station",
      "lat": 51.73252176017,
      "lon": -0.46293473253,
      "snapped": true,
      "distance_m": 6,
      "segment_id": 5973,
      "snap_point": [
        -0.462991,
        51.732481
      ]
    },
    {
      "crs": "APY",
      "name": "Apperley Bridge Rail Station",
      "lat": 53.84174897167,
      "lon": -1.70582848003,
      "snapped": true,
      "distance_m": 18.2,
      "segment_id": 5486,
      "snap_point": [
        -1.705751,
        53.841907
      ]
    },
    {
      "crs": "ARB",
      "name": "Arbroath Rail Station",
      "lat": 56.559573741,
      "lon": -2.58893139426,
      "snapped": true,
      "distance_m": 5.1,
      "segment_id": 3695,
      "snap_point": [
        -2.589006,
        56.559593
      ]
    },
    {
      "crs": "ARD",
      "name": "Ardgay Rail Station",
      "lat": 57.88145239367,
      "lon": -4.36208920609,
      "snapped": true,
      "distance_m": 0.9,
      "segment_id": 2460,
      "snap_point": [
        -4.362102,
        57.881448
      ]
    },
    {
      "crs": "ARG",
      "name": "Arisaig Rail Station",
      "lat": 56.9125463927,
      "lon": -5.83907767832,
      "snapped": true,
      "distance_m": 40.5,
      "segment_id": 3424,
      "snap_point": [
        -5.838998,
        56.91291
      ]
    },
    {
      "crs": "ARL",
      "name": "Arlesey Rail Station",
      "lat": 52.02603126054,
      "lon": -0.26631975935,
      "snapped": true,
      "distance_m": 0.2,
      "segment_id": 3979,
      "snap_point": [
        -0.266317,
        52.026031
      ]
    },
    {
      "crs": "ARM",
      "name": "Armadale (W Lothian) Rail Station",
      "lat": 55.88570975781,
      "lon": -3.69541259893,
      "snapped": true,
      "distance_m": 9.4,
      "segment_id": 3337,
      "snap_point": [
        -3.695329,
        55.885639
      ]
    },
    {
      "crs": "ARN",
      "name": "Arnside Rail Station",
      "lat": 54.20272857701,
      "lon": -2.82824144558,
      "snapped": true,
      "distance_m": 0.8,
      "segment_id": 5539,
      "snap_point": [
        -2.828233,
        54.202733
      ]
    },
    {
      "crs": "ARR",
      "name": "Arram Rail Station",
      "lat": 53.88434367979,
      "lon": -0.42657005177,
      "snapped": true,
      "distance_m": 1.1,
      "segment_id": 1861,
      "snap_point": [
        -0.426585,
        53.884339
      ]
    },
    {
      "crs": "ART",
      "name": "Arrochar & Tarbet Rail Station",
      "lat": 56.20397079227,
      "lon": -4.72277004057,
      "snapped": true,
      "distance_m": 46.6,
      "segment_id": 2882,
      "snap_point": [
        -4.722431,
        56.203594
      ]
    },
    {
      "crs": "ARU",
      "name": "Arundel Rail Station",
      "lat": 50.84821482762,
      "lon": -0.54617421767,
      "snapped": true,
      "distance_m": 2.4,
      "segment_id": 1426,
      "snap_point": [
        -0.546144,
        50.848205
      ]
    },
    {
      "crs": "ASB",
      "name": "Ardrossan South Beach Rail Station",
      "lat": 55.64141617387,
      "lon": -4.80121139475,
      "snapped": true,
      "distance_m": 1.2,
      "segment_id": 5833,
      "snap_point": [
        -4.801222,
        55.641407
      ]
    },
    {
      "crs": "ASC",
      "name": "Ashchurch for Tewkesbury Rail Station",
      "lat": 51.99890403964,
      "lon": -2.10875994357,
      "snapped": true,
      "distance_m": 0.2,
      "segment_id": 610,
      "snap_point": [
        -2.108757,
        51.998904
      ]
    },
    {
      "crs": "ASD",
      "name": "Ashley Down",
      "lat": 51.47875,
      "lon": -2.5767,
      "snapped": true,
      "distance_m": 3.5,
      "segment_id": 973,
      "snap_point": [
        -2.57665,
        51.478747
      ]
    },
    {
      "crs": "ASF",
      "name": "Ashfield Rail Station",
      "lat": 55.88892180962,
      "lon": -4.24921411534,
      "snapped": true,
      "distance_m": 0.8,
      "segment_id": 2277,
      "snap_point": [
        -4.249217,
        55.888915
      ]
    },
    {
      "crs": "ASG",
      "name": "Alsager Rail Station",
      "lat": 53.09300333618,
      "lon": -2.29905753309,
      "snapped": true,
      "distance_m": 1.5,
      "segment_id": 756,
      "snap_point": [
        -2.299054,
        53.09299
      ]
    },
    {
      "crs": "ASH",
      "name": "Ash Rail Station",
      "lat": 51.24959731625,
      "lon": -0.71280538722,
      "snapped": true,
      "distance_m": 6.2,
      "segment_id": 1298,
      "snap_point": [
        -0.712757,
        51.249644
      ]
    },
    {
      "crs": "ASK",
      "name": "Askam Rail Station",
      "lat": 54.18892963805,
      "lon": -3.20451119051,
      "snapped": true,
      "distance_m": 1.2,
      "segment_id": 2993,
      "snap_point": [
        -3.20453,
        54.188928
      ]
    },
    {
      "crs": "ASL",
      "name": "Ashington Rail Station",
      "lat": 55.18224,
      "lon": -1.57278,
      "snapped": true,
      "distance_m": 4.4,
      "segment_id": 5743,
      "snap_point": [
        -1.572715,
        55.182253
      ]
    },
    {
      "crs": "ASN",
      "name": "Addlestone Rail Station",
      "lat": 51.37304566372,
      "lon": -0.48445671716,
      "snapped": true,
      "distance_m": 1.1,
      "segment_id": 3003,
      "snap_point": [
        -0.484446,
        51.373053
      ]
    },
    {
      "crs": "ASP",
      "name": "Aspatria Rail Station",
      "lat": 54.75895619255,
      "lon": -3.33187360253,
      "snapped": true,
      "distance_m": 1.7,
      "segment_id": 2993,
      "snap_point": [
        -3.331891,
        54.758968
      ]
    },
    {
      "crs": "ASS",
      "name": "Alness Rail Station",
      "lat": 57.69439411691,
      "lon": -4.24971628511,
      "snapped": true,
      "distance_m": 2.5,
      "segment_id": 2472,
      "snap_point": [
        -4.249725,
        57.694372
      ]
    },
    {
      "crs": "AST",
      "name": "Aston Rail Station",
      "lat": 52.50423065769,
      "lon": -1.87193353804,
      "snapped": true,
      "distance_m": 2.9,
      "segment_id": 1135,
      "snap_point": [
        -1.871896,
        52.504243
      ]
    },
    {
      "crs": "ASY",
      "name": "Ashley Rail Station",
      "lat": 53.35572365976,
      "lon": -2.34146042588,
      "snapped": true,
      "distance_m": 3.7,
      "segment_id": 832,
      "snap_point": [
        -2.341405,
        53.355727
      ]
    },
    {
      "crs": "ATB",
      "name": "Attenborough Rail Station",
      "lat": 52.90621295338,
      "lon": -1.23141548016,
      "snapped": true,
      "distance_m": 0.9,
      "segment_id": 4365,
      "snap_point": [
        -1.231425,
        52.906219
      ]
    },
    {
      "crs": "ATH",
      "name": "Atherstone Rail Station",
      "lat": 52.57897120193,
      "lon": -1.55281130806,
      "snapped": true,
      "distance_m": 0.7,
      "segment_id": 2108,
      "snap_point": [
        -1.55282,
        52.578969
      ]
    },
    {
      "crs": "ATL",
      "name": "Attleborough Rail Station",
      "lat": 52.51454794364,
      "lon": 1.02234774572,
      "snapped": true,
      "distance_m": 1.8,
      "segment_id": 597,
      "snap_point": [
        1.022365,
        52.514535
      ]
    },
    {
      "crs": "ATN",
      "name": "Atherton Rail Station",
      "lat": 53.5291438805,
      "lon": -2.4789719932,
      "snapped": true,
      "distance_m": 6.7,
      "segment_id": 3870,
      "snap_point": [
        -2.478942,
        53.529202
      ]
    },
    {
      "crs": "ATT",
      "name": "Attadale Rail Station",
      "lat": 57.39503655976,
      "lon": -5.45557705188,
      "snapped": true,
      "distance_m": 0.5,
      "segment_id": 2804,
      "snap_point": [
        -5.455586,
        57.395036
      ]
    },
    {
      "crs": "AUD",
      "name": "Audley End Rail Station",
      "lat": 52.00443983957,
      "lon": 0.20730569075,
      "snapped": true,
      "distance_m": 8.3,
      "segment_id": 4047,
      "snap_point": [
        0.207187,
        52.004427
      ]
    },
    {
      "crs": "AUG",
      "name": "Aughton Park Rail Station",
      "lat": 53.55424741626,
      "lon": -2.89522081448,
      "snapped": true,
      "distance_m": 1.5,
      "segment_id": 5674,
      "snap_point": [
        -2.895241,
        53.554254
      ]
    },
    {
      "crs": "AUI",
      "name": "Ardlui Rail Station",
      "lat": 56.30196654417,
      "lon": -4.72165737568,
      "snapped": true,
      "distance_m": 4.7,
      "segment_id": 2873,
      "snap_point": [
        -4.721588,
        56.301983
      ]
    },
    {
      "crs": "AUK",
      "name": "Auchinleck Rail Station",
      "lat": 55.47027326493,
      "lon": -4.29534918715,
      "snapped": true,
      "distance_m": 48.2,
      "segment_id": 5797,
      "snap_point": [
        -4.295457,
        55.469842
      ]
    },
    {
      "crs": "AUR",
      "name": "Aberdour Rail Station",
      "lat": 56.05459191149,
      "lon": -3.30056001734,
      "snapped": true,
      "distance_m": 26,
      "segment_id": 3945,
      "snap_point": [
        -3.300758,
        56.054799
      ]
    },
    {
      "crs": "AUW",
      "name": "Ascott-under-Wychwood Rail Station",
      "lat": 51.86734078069,
      "lon": -1.56405264014,
      "snapped": true,
      "distance_m": 8.5,
      "segment_id": 1466,
      "snap_point": [
        -1.564113,
        51.867408
      ]
    },
    {
      "crs": "AVF",
      "name": "Avoncliff Rail Station",
      "lat": 51.3396508457,
      "lon": -2.28132527867,
      "snapped": true,
      "distance_m": 0.9,
      "segment_id": 1000,
      "snap_point": [
        -2.28133,
        51.339658
      ]
    },
    {
      "crs": "AVM",
      "name": "Aviemore Rail Station",
      "lat": 57.18851180144,
      "lon": -3.82886717842,
      "snapped": true,
      "distance_m": 1.3,
      "segment_id": 4142,
      "snap_point": [
        -3.828889,
        57.188512
      ]
    },
    {
      "crs": "AVN",
      "name": "Avonmouth Rail Station",
      "lat": 51.50036215509,
      "lon": -2.69946610827,
      "snapped": true,
      "distance_m": 0.7,
      "segment_id": 963,
      "snap_point": [
        -2.699458,
        51.500365
      ]
    },
    {
      "crs": "AVP",
      "name": "Aylesbury Vale Parkway Rail Station",
      "lat": 51.83115901817,
      "lon": -0.86018234228,
      "snapped": true,
      "distance_m": 19.2,
      "segment_id": 5706,
      "snap_point": [
        -0.859903,
        51.83116
      ]
    },
    {
      "crs": "AVY",
      "name": "Aberdovey Rail Station",
      "lat": 52.54395659957,
      "lon": -4.05706706793,
      "snapped": true,
      "distance_m": 49.7,
      "segment_id": 2633,
      "snap_point": [
        -4.056942,
        52.544399
      ]
    },
    {
      "crs": "AWK",
      "name": "Adwick Rail Station",
      "lat": 53.57232071859,
      "lon": -1.18035620719,
      "snapped": true,
      "distance_m": 1.6,
      "segment_id": 1857,
      "snap_point": [
        -1.180337,
        53.572329
      ]
    },
    {
      "crs": "AWM",
      "name": "Ashwell & Morden Rail Station",
      "lat": 52.03077214672,
      "lon": -0.10978883668,
      "snapped": true,
      "distance_m": 9.1,
      "segment_id": 4025,
      "snap_point": [
        -0.10973,
        52.030698
      ]
    },
    {
      "crs": "AWT",
      "name": "Armathwaite Rail Station",
      "lat": 54.80946514572,
      "lon": -2.77207104301,
      "snapped": true,
      "distance_m": 1,
      "segment_id": 3149,
      "snap_point": [
        -2.772085,
        54.80947
      ]
    },
    {
      "crs": "AXM",
      "name": "Axminster Rail Station",
      "lat": 50.77927120095,
      "lon": -3.00472309727,
      "snapped": true,
      "distance_m": 1.1,
      "segment_id": 5104,
      "snap_point": [
        -3.004709,
        50.779267
      ]
    },
    {
      "crs": "AXP",
      "name": "Alexandra Parade Rail Station",
      "lat": 55.86317091519,
      "lon": -4.21064800754,
      "snapped": true,
      "distance_m": 2.2,
      "segment_id": 5689,
      "snap_point": [
        -4.210612,
        55.863172
      ]
    },
    {
      "crs": "AYH",
      "name": "Aylesham Rail Station",
      "lat": 51.22725429648,
      "lon": 1.2094529054,
      "snapped": true,
      "distance_m": 11.8,
      "segment_id": 4689,
      "snap_point": [
        1.209618,
        51.227279
      ]
    },
    {
      "crs": "AYL",
      "name": "Aylesford Rail Station",
      "lat": 51.301317844,
      "lon": 0.46617068355,
      "snapped": true,
      "distance_m": 11.2,
      "segment_id": 5446,
      "snap_point": [
        0.466218,
        51.301415
      ]
    },
    {
      "crs": "AYP",
      "name": "Albany Park Rail Station",
      "lat": 51.43545265496,
      "lon": 0.12573715609,
      "snapped": true,
      "distance_m": 8.2,
      "segment_id": 2582,
      "snap_point": [
        0.125753,
        51.435379
      ]
    },
    {
      "crs": "AYR",
      "name": "Ayr Rail Station",
      "lat": 55.45814202618,
      "lon": -4.62587561471,
      "snapped": true,
      "distance_m": 5.5,
      "segment_id": 3115,
      "snap_point": [
        -4.625795,
        55.458122
      ]
    },
    {
      "crs": "AYS",
      "name": "Aylesbury Rail Station",
      "lat": 51.81389057916,
      "lon": -0.81509590543,
      "snapped": true,
      "distance_m": 10.9,
      "segment_id": 4777,
      "snap_point": [
        -0.815172,
        51.813804
      ]
    },
    {
      "crs": "AYW",
      "name": "Aberystwyth Rail Station",
      "lat": 52.41404494843,
      "lon": -4.08189352291,
      "snapped": true,
      "distance_m": 38,
      "segment_id": 2584,
      "snap_point": [
        -4.081466,
        52.413823
      ]
    },
    {
      "crs": "BAA",
      "name": "Barnham Rail Station",
      "lat": 50.83090652593,
      "lon": -0.63967987064,
      "snapped": true,
      "distance_m": 8.7,
      "segment_id": 1294,
      "snap_point": [
        -0.63968,
        50.830828
      ]
    },
    {
      "crs": "BAB",
      "name": "Balcombe Rail Station",
      "lat": 51.0555216567,
      "lon": -0.13693367765,
      "snapped": true,
      "distance_m": 2.2,
      "segment_id": 107,
      "snap_point": [
        -0.136963,
        51.055516
      ]
    },
    {
      "crs": "BAC",
      "name": "Bache Rail Station",
      "lat": 53.20878566244,
      "lon": -2.89167004578,
      "snapped": true,
      "distance_m": 0.9,
      "segment_id": 2069,
      "snap_point": [
        -2.891658,
        53.208788
      ]
    },
    {
      "crs": "BAD",
      "name": "Banstead Rail Station",
      "lat": 51.32934884567,
      "lon": -0.21315885243,
      "snapped": true,
      "distance_m": 1.7,
      "segment_id": 5568,
      "snap_point": [
        -0.213154,
        51.329364
      ]
    },
    {
      "crs": "BAG",
      "name": "Bagshot Rail Station",
      "lat": 51.36436751968,
      "lon": -0.68866191091,
      "snapped": true,
      "distance_m": 9.9,
      "segment_id": 5055,
      "snap_point": [
        -0.688524,
        51.364346
      ]
    },
    {
      "crs": "BAH",
      "name": "Bank Hall Rail Station",
      "lat": 53.43749336469,
      "lon": -2.98751140146,
      "snapped": true,
      "distance_m": 3.1,
      "segment_id": 5677,
      "snap_point": [
        -2.987472,
        53.437508
      ]
    },
    {
      "crs": "BAI",
      "name": "Blairhill Rail Station",
      "lat": 55.86645081485,
      "lon": -4.04329031236,
      "snapped": true,
      "distance_m": 0.3,
      "segment_id": 3334,
      "snap_point": [
        -4.043289,
        55.866448
      ]
    },
    {
      "crs": "BAJ",
      "name": "Baglan Rail Station",
      "lat": 51.6155407515,
      "lon": -3.81113575452,
      "snapped": true,
      "distance_m": 26.4,
      "segment_id": 3162,
      "snap_point": [
        -3.810817,
        51.615672
      ]
    },
    {
      "crs": "BAK",
      "name": "Battersea Park Rail Station",
      "lat": 51.47695975247,
      "lon": -0.14753343958,
      "snapped": true,
      "distance_m": 0.7,
      "segment_id": 4892,
      "snap_point": [
        -0.147523,
        51.47696
      ]
    },
    {
      "crs": "BAL",
      "name": "Balham Rail Station",
      "lat": 51.44322487289,
      "lon": -0.15242441575,
      "snapped": true,
      "distance_m": 12.2,
      "segment_id": 4888,
      "snap_point": [
        -0.152458,
        51.443117
      ]
    },
    {
      "crs": "BAM",
      "name": "Bamford Rail Station",
      "lat": 53.33899974575,
      "lon": -1.68908172623,
      "snapped": true,
      "distance_m": 0.1,
      "segment_id": 1600,
      "snap_point": [
        -1.689083,
        53.338999
      ]
    },
    {
      "crs": "BAN",
      "name": "Banbury Rail Station",
      "lat": 52.06030818238,
      "lon": -1.32813275692,
      "snapped": true,
      "distance_m": 35.2,
      "segment_id": 896,
      "snap_point": [
        -1.327689,
        52.060468
      ]
    },
    {
      "crs": "BAR",
      "name": "Bare Lane Rail Station",
      "lat": 54.07454140233,
      "lon": -2.83533041899,
      "snapped": true,
      "distance_m": 2.1,
      "segment_id": 3016,
      "snap_point": [
        -2.835342,
        54.074559
      ]
    },
    {
      "crs": "BAS",
      "name": "Bere Alston Rail Station",
      "lat": 50.48559363649,
      "lon": -4.20035447755,
      "snapped": true,
      "distance_m": 1.9,
      "segment_id": 1918,
      "snap_point": [
        -4.200362,
        50.48561
      ]
    },
    {
      "crs": "BAT",
      "name": "Battle Rail Station",
      "lat": 50.91291557408,
      "lon": 0.49470289462,
      "snapped": true,
      "distance_m": 13.2,
      "segment_id": 1276,
      "snap_point": [
        0.494864,
        50.912854
      ]
    },
    {
      "crs": "BAU",
      "name": "Barton-on-Humber Rail Station",
      "lat": 53.68891863124,
      "lon": -0.44343665567,
      "snapped": true,
      "distance_m": 1.1,
      "segment_id": 3468,
      "snap_point": [
        -0.443441,
        53.688928
      ]
    },
    {
      "crs": "BAV",
      "name": "Barrow Haven Rail Station",
      "lat": 53.69742091892,
      "lon": -0.39295515945,
      "snapped": true,
      "distance_m": 5.2,
      "segment_id": 3468,
      "snap_point": [
        -0.392977,
        53.697466
      ]
    },
    {
      "crs": "BAW",
      "name": "Blackwater Rail Station",
      "lat": 51.3315815812,
      "lon": -0.77674093582,
      "snapped": true,
      "distance_m": 1.5,
      "segment_id": 3059,
      "snap_point": [
        -0.776758,
        51.331573
      ]
    },
    {
      "crs": "BAY",
      "name": "Bayford Rail Station",
      "lat": 51.75771642993,
      "lon": -0.09560993933,
      "snapped": true,
      "distance_m": 9.5,
      "segment_id": 3730,
      "snap_point": [
        -0.095747,
        51.757729
      ]
    },
    {
      "crs": "BBG",
      "name": "Bishopbriggs Rail Station",
      "lat": 55.90387809362,
      "lon": -4.22491474935,
      "snapped": true,
      "distance_m": 4.3,
      "segment_id": 3454,
      "snap_point": [
        -4.224876,
        55.903846
      ]
    },
    {
      "crs": "BBK",
      "name": "Bilbrook Rail Station",
      "lat": 52.62371783641,
      "lon": -2.18608773615,
      "snapped": true,
      "distance_m": 8.7,
      "segment_id": 728,
      "snap_point": [
        -2.186143,
        52.623646
      ]
    },
    {
      "crs": "BBL",
      "name": "Bat & Ball Rail Station",
      "lat": 51.2897607812,
      "lon": 0.19422757424,
      "snapped": true,
      "distance_m": 22.2,
      "segment_id": 4580,
      "snap_point": [
        0.193962,
        51.289872
      ]
    },
    {
      "crs": "BBN",
      "name": "Blackburn Rail Station",
      "lat": 53.74651607633,
      "lon": -2.47912205167,
      "snapped": true,
      "distance_m": 0.9,
      "segment_id": 4086,
      "snap_point": [
        -2.479112,
        53.74651
      ]
    },
    {
      "crs": "BBS",
      "name": "Bordesley Rail Station",
      "lat": 52.47187299411,
      "lon": -1.87776863413,
      "snapped": true,
      "distance_m": 25.3,
      "segment_id": 929,
      "snap_point": [
        -1.877483,
        52.47202
      ]
    },
    {
      "crs": "BBW",
      "name": "Berry Brow Rail Station",
      "lat": 53.62104070101,
      "lon": -1.7934320772,
      "snapped": true,
      "distance_m": 5,
      "segment_id": 1799,
      "snap_point": [
        -1.793484,
        53.621008
      ]
    },
    {
      "crs": "BCB",
      "name": "Burscough Bridge Rail Station",
      "lat": 53.60525655804,
      "lon": -2.84087983477,
      "snapped": true,
      "distance_m": 1.5,
      "segment_id": 5640,
      "snap_point": [
        -2.840887,
        53.605244
      ]
    },
    {
      "crs": "BCC",
      "name": "Beccles Rail Station",
      "lat": 52.45852250008,
      "lon": 1.56949356787,
      "snapped": true,
      "distance_m": 15.8,
      "segment_id": 5632,
      "snap_point": [
        1.569719,
        52.45856
      ]
    },
    {
      "crs": "BCE",
      "name": "Bracknell Rail Station",
      "lat": 51.41309188829,
      "lon": -0.75170356103,
      "snapped": true,
      "distance_m": 11.8,
      "segment_id": 5107,
      "snap_point": [
        -0.751723,
        51.412986
      ]
    },
    {
      "crs": "BCF",
      "name": "Beaconsfield Rail Station",
      "lat": 51.61129123735,
      "lon": -0.64382219785,
      "snapped": true,
      "distance_m": 0.6,
      "segment_id": 905,
      "snap_point": [
        -0.643822,
        51.611297
      ]
    },
    {
      "crs": "BCG",
      "name": "Birchgrove Rail Station",
      "lat": 51.52155619109,
      "lon": -3.20185323367,
      "snapped": true,
      "distance_m": 2,
      "segment_id": 5905,
      "snap_point": [
        -3.201852,
        51.521538
      ]
    },
    {
      "crs": "BCH",
      "name": "Birchington-on-Sea Rail Station",
      "lat": 51.37749259491,
      "lon": 1.30140859632,
      "snapped": true,
      "distance_m": 2.3,
      "segment_id": 5471,
      "snap_point": [
        1.301406,
        51.377514
      ]
    },
    {
      "crs": "BCJ",
      "name": "Burscough Junction Rail Station",
      "lat": 53.59751935732,
      "lon": -2.8406052465,
      "snapped": true,
      "distance_m": 2.9,
      "segment_id": 4683,
      "snap_point": [
        -2.840568,
        53.597505
      ]
    },
    {
      "crs": "BCK",
      "name": "Buckley Rail Station",
      "lat": 53.16303579963,
      "lon": -3.05592567548,
      "snapped": true,
      "distance_m": 49.2,
      "segment_id": 2928,
      "snap_point": [
        -3.055188,
        53.163021
      ]
    },
    {
      "crs": "BCN",
      "name": "Branchton Rail Station",
      "lat": 55.94059564078,
      "lon": -4.8035481115,
      "snapped": true,
      "distance_m": 9.5,
      "segment_id": 2256,
      "snap_point": [
        -4.803505,
        55.940514
      ]
    },
    {
      "crs": "BCS",
      "name": "Bicester North Rail Station",
      "lat": 51.90348276254,
      "lon": -1.15038340304,
      "snapped": true,
      "distance_m": 13,
      "segment_id": 895,
      "snap_point": [
        -1.150288,
        51.903585
      ]
    },
    {
      "crs": "BCU",
      "name": "Brockenhurst Rail Station",
      "lat": 50.81684095229,
      "lon": -1.57353100271,
      "snapped": true,
      "distance_m": 11.7,
      "segment_id": 1108,
      "snap_point": [
        -1.573407,
        50.81677
      ]
    },
    {
      "crs": "BCV",
      "name": "Bruce Grove Rail Station",
      "lat": 51.59395912272,
      "lon": -0.06986698816,
      "snapped": true,
      "distance_m": 1.4,
      "segment_id": 5138,
      "snap_point": [
        -0.069887,
        51.593962
      ]
    },
    {
      "crs": "BCY",
      "name": "Brockley Rail Station",
      "lat": 51.46464884615,
      "lon": -0.03753660945,
      "snapped": true,
      "distance_m": 0.6,
      "segment_id": 76,
      "snap_point": [
        -0.037528,
        51.464648
      ]
    },
    {
      "crs": "BCZ",
      "name": "Brent Cross West Station",
      "lat": 51.568429,
      "lon": -0.22548819,
      "snapped": true,
      "distance_m": 6.1,
      "segment_id": 4440,
      "snap_point": [
        -0.225558,
        51.568396
      ]
    },
    {
      "crs": "BDA",
      "name": "Brundall Rail Station",
      "lat": 52.61948351405,
      "lon": 1.43929896138,
      "snapped": false,
      "distance_m": 5604.8,
      "segment_id": 442,
      "snap_point": [
        1.379578,
        52.654654
      ]
    },
    {
      "crs": "BDB",
      "name": "Broadbottom Rail Station",
      "lat": 53.44097376628,
      "lon": -2.01652076989,
      "snapped": true,
      "distance_m": 18.6,
      "segment_id": 2952,
      "snap_point": [
        -2.016517,
        53.440806
      ]
    },
    {
      "crs": "BDG",
      "name": "Bridgeton Rail Station",
      "lat": 55.8489625955,
      "lon": -4.22605627862,
      "snapped": true,
      "distance_m": 0.7,
      "segment_id": 2342,
      "snap_point": [
        -4.22605,
        55.848968
      ]
    },
    {
      "crs": "BDH",
      "name": "Bedhampton Rail Station",
      "lat": 50.85395672389,
      "lon": -0.99582833048,
      "snapped": true,
      "distance_m": 13.7,
      "segment_id": 1421,
      "snap_point": [
        -0.995909,
        50.85407
      ]
    },
    {
      "crs": "BDI",
      "name": "Bradford Interchange Rail Station",
      "lat": 53.7910752487,
      "lon": -1.74959570123,
      "snapped": true,
      "distance_m": 9.7,
      "segment_id": 4091,
      "snap_point": [
        -1.749448,
        53.791079
      ]
    },
    {
      "crs": "BDK",
      "name": "Baldock Rail Station",
      "lat": 51.99287120941,
      "lon": -0.18756367372,
      "snapped": true,
      "distance_m": 9,
      "segment_id": 4022,
      "snap_point": [
        -0.187589,
        51.992951
      ]
    },
    {
      "crs": "BDL",
      "name": "Birkdale Rail Station",
      "lat": 53.63404958229,
      "lon": -3.01444960865,
      "snapped": true,
      "distance_m": 0.5,
      "segment_id": 5676,
      "snap_point": [
        -3.014443,
        53.634047
      ]
    },
    {
      "crs": "BDM",
      "name": "Bedford Rail Station",
      "lat": 52.13618736103,
      "lon": -0.47944229968,
      "snapped": true,
      "distance_m": 13.8,
      "segment_id": 4357,
      "snap_point": [
        -0.479623,
        52.136131
      ]
    },
    {
      "crs": "BDN",
      "name": "Brading Rail Station",
      "lat": 50.67837192899,
      "lon": -1.13872233248,
      "snapped": true,
      "distance_m": 9.9,
      "segment_id": 985,
      "snap_point": [
        -1.138606,
        50.678322
      ]
    },
    {
      "crs": "BDQ",
      "name": "Bradford Forster Square Rail Station",
      "lat": 53.79692441269,
      "lon": -1.7529615389,
      "snapped": true,
      "distance_m": 59.1,
      "segment_id": 5702,
      "snap_point": [
        -1.753261,
        53.797428
      ]
    },
    {
      "crs": "BDS",
      "name": "Bond Street",
      "lat": null,
      "lon": null,
      "snapped": null,
      "distance_m": null,
      "segment_id": null,
      "snap_point": null
    },
    {
      "crs": "BDT",
      "name": "Bridlington Rail Station",
      "lat": 54.08413126708,
      "lon": -0.1987203099,
      "snapped": true,
      "distance_m": 38.2,
      "segment_id": 1861,
      "snap_point": [
        -0.198978,
        54.084442
      ]
    },
    {
      "crs": "BDW",
      "name": "Bedwyn Rail Station",
      "lat": 51.37964003023,
      "lon": -1.59878609614,
      "snapped": true,
      "distance_m": 1.5,
      "segment_id": 5290,
      "snap_point": [
        -1.598805,
        51.379646
      ]
    },
    {
      "crs": "BDY",
      "name": "Bredbury Rail Station",
      "lat": 53.42315332003,
      "lon": -2.11048803686,
      "snapped": true,
      "distance_m": 9.4,
      "segment_id": 1573,
      "snap_point": [
        -2.110563,
        53.423081
      ]
    },
    {
      "crs": "BEA",
      "name": "Bridge of Allan Rail Station",
      "lat": 56.15663513682,
      "lon": -3.95722851142,
      "snapped": true,
      "distance_m": 2.5,
      "segment_id": 4183,
      "snap_point": [
        -3.957269,
        56.156635
      ]
    },
    {
      "crs": "BEB",
      "name": "Bebington Rail Station",
      "lat": 53.35765385894,
      "lon": -3.00363467306,
      "snapped": true,
      "distance_m": 35.6,
      "segment_id": 2072,
      "snap_point": [
        -3.003123,
        53.357748
      ]
    },
    {
      "crs": "BEC",
      "name": "Beckenham Hill Rail Station",
      "lat": 51.42458254863,
      "lon": -0.01595103016,
      "snapped": true,
      "distance_m": 0.1,
      "segment_id": 4604,
      "snap_point": [
        -0.01595,
        51.424583
      ]
    },
    {
      "crs": "BEE",
      "name": "Beeston Rail Station",
      "lat": 52.9207548099,
      "lon": -1.20765788907,
      "snapped": true,
      "distance_m": 2.4,
      "segment_id": 4320,
      "snap_point": [
        -1.207633,
        52.92074
      ]
    },
    {
      "crs": "BEF",
      "name": "Benfleet Rail Station",
      "lat": 51.54394506572,
      "lon": 0.56171347084,
      "snapped": true,
      "distance_m": 9.1,
      "segment_id": 5511,
      "snap_point": [
        0.56179,
        51.544012
      ]
    },
    {
      "crs": "BEG",
      "name": "Beltring Rail Station",
      "lat": 51.20470872283,
      "lon": 0.40349559627,
      "snapped": true,
      "distance_m": 2.1,
      "segment_id": 5448,
      "snap_point": [
        0.403466,
        51.204712
      ]
    },
    {
      "crs": "BEH",
      "name": "Bedworth Rail Station",
      "lat": 52.47929669984,
      "lon": -1.46739207733,
      "snapped": true,
      "distance_m": 4.7,
      "segment_id": 1891,
      "snap_point": [
        -1.467461,
        52.479292
      ]
    },
    {
      "crs": "BEJ",
      "name": "Bedlington Rail Station",
      "lat": 55.14051,
      "lon": -1.56867,
      "snapped": true,
      "distance_m": 12.6,
      "segment_id": 5744,
      "snap_point": [
        -1.568812,
        55.14043
      ]
    },
    {
      "crs": "BEL",
      "name": "Beauly Rail Station",
      "lat": 57.47828254385,
      "lon": -4.46986577748,
      "snapped": true,
      "distance_m": 0.1,
      "segment_id": 2474,
      "snap_point": [
        -4.469865,
        57.478283
      ]
    },
    {
      "crs": "BEM",
      "name": "Bempton Rail Station",
      "lat": 54.12765935378,
      "lon": -0.18045676255,
      "snapped": true,
      "distance_m": 2.2,
      "segment_id": 1861,
      "snap_point": [
        -0.180437,
        54.127675
      ]
    },
    {
      "crs": "BEN",
      "name": "Bentham Rail Station",
      "lat": 54.11551727945,
      "lon": -2.51067615135,
      "snapped": true,
      "distance_m": 3.5,
      "segment_id": 5482,
      "snap_point": [
        -2.510689,
        54.115486
      ]
    },
    {
      "crs": "BEP",
      "name": "Bermuda Park Rail Station",
      "lat": 52.50143363291,
      "lon": -1.47217759826,
      "snapped": true,
      "distance_m": 1.4,
      "segment_id": 1891,
      "snap_point": [
        -1.472157,
        52.501435
      ]
    },
    {
      "crs": "BER",
      "name": "Bearley Rail Station",
      "lat": 52.24441041943,
      "lon": -1.75025528142,
      "snapped": true,
      "distance_m": 9.7,
      "segment_id": 5867,
      "snap_point": [
        -1.75037,
        52.244463
      ]
    },
    {
      "crs": "BES",
      "name": "Bescar Lane Rail Station",
      "lat": 53.6238522682,
      "lon": -2.91461053035,
      "snapped": true,
      "distance_m": 0.2,
      "segment_id": 5640,
      "snap_point": [
        -2.914612,
        53.62385
      ]
    },
    {
      "crs": "BET",
      "name": "Bethnal Green Rail Station",
      "lat": 51.52391726889,
      "lon": -0.05956796403,
      "snapped": true,
      "distance_m": 1.2,
      "segment_id": 5180,
      "snap_point": [
        -0.05957,
        51.523928
      ]
    },
    {
      "crs": "BEU",
      "name": "Beaulieu Road Rail Station",
      "lat": 50.8550485949,
      "lon": -1.50474946667,
      "snapped": true,
      "distance_m": 15.3,
      "segment_id": 1088,
      "snap_point": [
        -1.504964,
        50.855024
      ]
    },
    {
      "crs": "BEV",
      "name": "Beverley Rail Station",
      "lat": 53.84227350937,
      "lon": -0.42298004647,
      "snapped": true,
      "distance_m": 2.2,
      "segment_id": 1861,
      "snap_point": [
        -0.422947,
        53.842275
      ]
    },
    {
      "crs": "BEX",
      "name": "Bexhill Rail Station",
      "lat": 50.84104242608,
      "lon": 0.47701670807,
      "snapped": true,
      "distance_m": 1.3,
      "segment_id": 1249,
      "snap_point": [
        0.477015,
        50.841054
      ]
    },
    {
      "crs": "BEY",
      "name": "Ben Rhydding Rail Station",
      "lat": 53.92571405189,
      "lon": -1.79743005659,
      "snapped": false,
      "distance_m": 7945.1,
      "segment_id": 5473,
      "snap_point": [
        -1.850251,
        53.861043
      ]
    },
    {
      "crs": "BFD",
      "name": "Brentford Rail Station",
      "lat": 51.48754690635,
      "lon": -0.30965091793,
      "snapped": true,
      "distance_m": 9.3,
      "segment_id": 5127,
      "snap_point": [
        -0.309714,
        51.487621
      ]
    },
    {
      "crs": "BFE",
      "name": "Bere Ferrers Rail Station",
      "lat": 50.45127694363,
      "lon": -4.18143422984,
      "snapped": true,
      "distance_m": 3.4,
      "segment_id": 1917,
      "snap_point": [
        -4.181481,
        50.451273
      ]
    },
    {
      "crs": "BFF",
      "name": "Blaenau Ffestiniog Rail Station",
      "lat": 52.99454837072,
      "lon": -3.9385949296,
      "snapped": true,
      "distance_m": 2.3,
      "segment_id": 539,
      "snap_point": [
        -3.938594,
        52.994569
      ]
    },
    {
      "crs": "BFN",
      "name": "Byfleet & New Haw Rail Station",
      "lat": 51.34979664729,
      "lon": -0.48138968791,
      "snapped": true,
      "distance_m": 10.9,
      "segment_id": 5053,
      "snap_point": [
        -0.481293,
        51.349719
      ]
    },
    {
      "crs": "BFR",
      "name": "London Blackfriars Rail Station",
      "lat": 51.5118097294,
      "lon": -0.10333199189,
      "snapped": true,
      "distance_m": 0.8,
      "segment_id": 4428,
      "snap_point": [
        -0.103343,
        51.511809
      ]
    },
    {
      "crs": "BGA",
      "name": "Brundall Gardens Rail Station",
      "lat": 52.62344330976,
      "lon": 1.41841639227,
      "snapped": false,
      "distance_m": 4335.7,
      "segment_id": 442,
      "snap_point": [
        1.379578,
        52.654654
      ]
    },
    {
      "crs": "BGD",
      "name": "Bargoed Rail Station",
      "lat": 51.69230918463,
      "lon": -3.22967955711,
      "snapped": true,
      "distance_m": 16.7,
      "segment_id": 2047,
      "snap_point": [
        -3.229478,
        51.692392
      ]
    },
    {
      "crs": "BGE",
      "name": "Broad Green Rail Station",
      "lat": 53.40650328883,
      "lon": -2.89348391276,
      "snapped": true,
      "distance_m": 1.6,
      "segment_id": 2232,
      "snap_point": [
        -2.893488,
        53.406517
      ]
    },
    {
      "crs": "BGG",
      "name": "Brigg Rail Station",
      "lat": 53.54914509776,
      "lon": -0.48612467657,
      "snapped": true,
      "distance_m": 13.7,
      "segment_id": 3500,
      "snap_point": [
        -0.486062,
        53.549027
      ]
    },
    {
      "crs": "BGH",
      "name": "Brighouse Rail Station",
      "lat": 53.69819729483,
      "lon": -1.77943883658,
      "snapped": true,
      "distance_m": 0.4,
      "segment_id": 2932,
      "snap_point": [
        -1.779437,
        53.698201
      ]
    },
    {
      "crs": "BGI",
      "name": "Bargeddie Rail Station",
      "lat": 55.8512912908,
      "lon": -4.07380735225,
      "snapped": true,
      "distance_m": 1.3,
      "segment_id": 2384,
      "snap_point": [
        -4.073816,
        55.851302
      ]
    },
    {
      "crs": "BGL",
      "name": "Bugle Rail Station",
      "lat": 50.40034870413,
      "lon": -4.79210020003,
      "snapped": true,
      "distance_m": 2.7,
      "segment_id": 3440,
      "snap_point": [
        -4.792119,
        50.400327
      ]
    },
    {
      "crs": "BGM",
      "name": "Bellingham Rail Station",
      "lat": 51.43291305851,
      "lon": -0.01933072445,
      "snapped": true,
      "distance_m": 0.9,
      "segment_id": 4614,
      "snap_point": [
        -0.019319,
        51.432916
      ]
    },
    {
      "crs": "BGN",
      "name": "Bridgend Rail Station",
      "lat": 51.50697351056,
      "lon": -3.57527568317,
      "snapped": true,
      "distance_m": 5.2,
      "segment_id": 3163,
      "snap_point": [
        -3.575207,
        51.506993
      ]
    },
    {
      "crs": "BGS",
      "name": "Bogston Rail Station",
      "lat": 55.93704156552,
      "lon": -4.71140097637,
      "snapped": true,
      "distance_m": 0.3,
      "segment_id": 2308,
      "snap_point": [
        -4.711402,
        55.937039
      ]
    },
    {
      "crs": "BGV",
      "name": "Barking Riverside",
      "lat": null,
      "lon": null,
      "snapped": null,
      "distance_m": null,
      "segment_id": null,
      "snap_point": null
    },
    {
      "crs": "BHC",
      "name": "Balloch Rail Station",
      "lat": 56.00293367261,
      "lon": -4.5834854062,
      "snapped": true,
      "distance_m": 50.8,
      "segment_id": 5838,
      "snap_point": [
        -4.583359,
        56.00248
      ]
    },
    {
      "crs": "BHD",
      "name": "Brithdir Rail Station",
      "lat": 51.7103024867,
      "lon": -3.22872020561,
      "snapped": true,
      "distance_m": 27.8,
      "segment_id": 2021,
      "snap_point": [
        -3.228348,
        51.710397
      ]
    },
    {
      "crs": "BHG",
      "name": "Bathgate Rail Station",
      "lat": 55.89715220401,
      "lon": -3.636096071,
      "snapped": true,
      "distance_m": 9.3,
      "segment_id": 3337,
      "snap_point": [
        -3.636182,
        55.897084
      ]
    },
    {
      "crs": "BHI",
      "name": "Birmingham International Rail Station",
      "lat": 52.45080697192,
      "lon": -1.72585666561,
      "snapped": true,
      "distance_m": 16,
      "segment_id": 2719,
      "snap_point": [
        -1.725675,
        52.450898
      ]
    },
    {
      "crs": "BHK",
      "name": "Bush Hill Park Rail Station",
      "lat": 51.64151853929,
      "lon": -0.06922103243,
      "snapped": true,
      "distance_m": 0.7,
      "segment_id": 5135,
      "snap_point": [
        -0.069212,
        51.641522
      ]
    },
    {
      "crs": "BHM",
      "name": "Birmingham New Street Rail Station",
      "lat": 52.47781838678,
      "lon": -1.900205346,
      "snapped": true,
      "distance_m": 0.2,
      "segment_id": 724,
      "snap_point": [
        -1.900205,
        52.47782
      ]
    },
    {
      "crs": "BHO",
      "name": "Blackhorse Road Rail Station",
      "lat": 51.58660548252,
      "lon": -0.04123566031,
      "snapped": true,
      "distance_m": 0.1,
      "segment_id": 2502,
      "snap_point": [
        -0.041236,
        51.586606
      ]
    },
    {
      "crs": "BHR",
      "name": "Builth Road Rail Station",
      "lat": 52.16932219374,
      "lon": -3.42703258703,
      "snapped": true,
      "distance_m": 0.2,
      "segment_id": 1977,
      "snap_point": [
        -3.427035,
        52.169323
      ]
    },
    {
      "crs": "BHS",
      "name": "Brockholes Rail Station",
      "lat": 53.59697180598,
      "lon": -1.76969121826,
      "snapped": true,
      "distance_m": 1.9,
      "segment_id": 1799,
      "snap_point": [
        -1.769713,
        53.59696
      ]
    },
    {
      "crs": "BIA",
      "name": "Bishop Auckland Rail Station",
      "lat": 54.6571952683,
      "lon": -1.6777149104,
      "snapped": true,
      "distance_m": 0.4,
      "segment_id": 4526,
      "snap_point": [
        -1.677715,
        54.657199
      ]
    },
    {
      "crs": "BIB",
      "name": "Bishop's Lydeard Rail Station",
      "lat": 51.05458641664,
      "lon": -3.19432975928,
      "snapped": true,
      "distance_m": 4,
      "segment_id": 599,
      "snap_point": [
        -3.194385,
        51.054576
      ]
    },
    {
      "crs": "BIC",
      "name": "Billericay Rail Station",
      "lat": 51.62888366054,
      "lon": 0.41862972179,
      "snapped": false,
      "distance_m": 4719.7,
      "segment_id": 5156,
      "snap_point": [
        0.370538,
        51.659192
      ]
    },
    {
      "crs": "BID",
      "name": "Bidston Rail Station",
      "lat": 53.40913653201,
      "lon": -3.07856057923,
      "snapped": true,
      "distance_m": 19.6,
      "segment_id": 2068,
      "snap_point": [
        -3.078595,
        53.409313
      ]
    },
    {
      "crs": "BIF",
      "name": "Barrow-in-Furness Rail Station",
      "lat": 54.11900014196,
      "lon": -3.22612033522,
      "snapped": true,
      "distance_m": 5.9,
      "segment_id": 2993,
      "snap_point": [
        -3.226054,
        54.119036
      ]
    },
    {
      "crs": "BIG",
      "name": "Billingshurst Rail Station",
      "lat": 51.01520447652,
      "lon": -0.45030215378,
      "snapped": true,
      "distance_m": 14.1,
      "segment_id": 1426,
      "snap_point": [
        -0.45027,
        51.015079
      ]
    },
    {
      "crs": "BIK",
      "name": "Birkbeck Rail Station",
      "lat": 51.40389159871,
      "lon": -0.05573865815,
      "snapped": true,
      "distance_m": 8.8,
      "segment_id": 6000,
      "snap_point": [
        -0.055661,
        51.403828
      ]
    },
    {
      "crs": "BIL",
      "name": "Billingham Rail Station",
      "lat": 54.60560609915,
      "lon": -1.27971955308,
      "snapped": true,
      "distance_m": 3.8,
      "segment_id": 4748,
      "snap_point": [
        -1.279679,
        54.605581
      ]
    },
    {
      "crs": "BIN",
      "name": "Bingham Rail Station",
      "lat": 52.954190664,
      "lon": -0.95154325118,
      "snapped": true,
      "distance_m": 2.5,
      "segment_id": 3079,
      "snap_point": [
        -0.951541,
        52.954213
      ]
    },
    {
      "crs": "BIO",
      "name": "Baillieston Rail Station",
      "lat": 55.84450099237,
      "lon": -4.11369840014,
      "snapped": true,
      "distance_m": 0.9,
      "segment_id": 2394,
      "snap_point": [
        -4.113694,
        55.844494
      ]
    },
    {
      "crs": "BIP",
      "name": "Bishopstone Rail Station",
      "lat": 50.7801435316,
      "lon": 0.08275700866,
      "snapped": true,
      "distance_m": 21.4,
      "segment_id": 1220,
      "snap_point": [
        0.082591,
        50.779982
      ]
    },
    {
      "crs": "BIS",
      "name": "Bishops Stortford Rail Station",
      "lat": 51.86669138211,
      "lon": 0.16489419614,
      "snapped": true,
      "distance_m": 16.9,
      "segment_id": 5205,
      "snap_point": [
        0.165118,
        51.866753
      ]
    },
    {
      "crs": "BIT",
      "name": "Bicester Village Rail Station",
      "lat": 51.8930234244,
      "lon": -1.14876413306,
      "snapped": true,
      "distance_m": 2.9,
      "segment_id": 921,
      "snap_point": [
        -1.14873,
        51.893008
      ]
    },
    {
      "crs": "BIW",
      "name": "Biggleswade Rail Station",
      "lat": 52.08467984862,
      "lon": -0.26118711415,
      "snapped": true,
      "distance_m": 16.2,
      "segment_id": 1605,
      "snap_point": [
        -0.260952,
        52.084694
      ]
    },
    {
      "crs": "BIY",
      "name": "Bingley Rail Station",
      "lat": 53.84861409196,
      "lon": -1.83732228587,
      "snapped": true,
      "distance_m": 13.1,
      "segment_id": 3224,
      "snap_point": [
        -1.837162,
        53.848685
      ]
    },
    {
      "crs": "BKA",
      "name": "Bookham Rail Station",
      "lat": 51.28873865847,
      "lon": -0.38402060641,
      "snapped": true,
      "distance_m": 5.9,
      "segment_id": 4941,
      "snap_point": [
        -0.384042,
        51.28879
      ]
    },
    {
      "crs": "BKC",
      "name": "Birkenhead Central Rail Station",
      "lat": 53.38831339142,
      "lon": -3.02082065372,
      "snapped": true,
      "distance_m": 0.2,
      "segment_id": 2072,
      "snap_point": [
        -3.020818,
        53.388313
      ]
    },
    {
      "crs": "BKD",
      "name": "Blakedown Rail Station",
      "lat": 52.40640078976,
      "lon": -2.17686538073,
      "snapped": true,
      "distance_m": 0.5,
      "segment_id": 942,
      "snap_point": [
        -2.176871,
        52.406403
      ]
    },
    {
      "crs": "BKG",
      "name": "Barking Rail Station",
      "lat": 51.53949471555,
      "lon": 0.08090251386,
      "snapped": true,
      "distance_m": 1.3,
      "segment_id": 5515,
      "snap_point": [
        0.080914,
        51.539504
      ]
    },
    {
      "crs": "BKH",
      "name": "Blackheath Rail Station",
      "lat": 51.46579624108,
      "lon": 0.00887195566,
      "snapped": true,
      "distance_m": 1.3,
      "segment_id": 5035,
      "snap_point": [
        0.008875,
        51.465785
      ]
    },
    {
      "crs": "BKJ",
      "name": "Beckenham Junction Rail Station",
      "lat": 51.41103510697,
      "lon": -0.02581274155,
      "snapped": true,
      "distance_m": 1,
      "segment_id": 4595,
      "snap_point": [
        -0.025815,
        51.411026
      ]
    },
    {
      "crs": "BKL",
      "name": "Bickley Rail Station",
      "lat": 51.40010421452,
      "lon": 0.04524062672,
      "snapped": true,
      "distance_m": 0.8,
      "segment_id": 4603,
      "snap_point": [
        0.045242,
        51.400097
      ]
    },
    {
      "crs": "BKM",
      "name": "Berkhamsted Rail Station",
      "lat": 51.76313385488,
      "lon": -0.56201289972,
      "snapped": true,
      "distance_m": 18.8,
      "segment_id": 2056,
      "snap_point": [
        -0.561915,
        51.763293
      ]
    },
    {
      "crs": "BKN",
      "name": "Birkenhead North Rail Station",
      "lat": 53.40443464169,
      "lon": -3.05753314281,
      "snapped": true,
      "distance_m": 3.8,
      "segment_id": 2062,
      "snap_point": [
        -3.057501,
        53.404463
      ]
    },
    {
      "crs": "BKO",
      "name": "Brookwood Rail Station",
      "lat": 51.30375792694,
      "lon": -0.63574781605,
      "snapped": true,
      "distance_m": 13.2,
      "segment_id": 5053,
      "snap_point": [
        -0.63573,
        51.303639
      ]
    },
    {
      "crs": "BKP",
      "name": "Birkenhead Park Rail Station",
      "lat": 53.39740532129,
      "lon": -3.0391007784,
      "snapped": true,
      "distance_m": 6.5,
      "segment_id": 2017,
      "snap_point": [
        -3.039058,
        53.397458
      ]
    },
    {
      "crs": "BKQ",
      "name": "Birkenhead Hamilton Square Rail Station",
      "lat": 53.39469350167,
      "lon": -3.01367966331,
      "snapped": true,
      "distance_m": 3.8,
      "segment_id": 2063,
      "snap_point": [
        -3.013642,
        53.394668
      ]
    },
    {
      "crs": "BKR",
      "name": "Blackridge Rail Station",
      "lat": 55.88425139381,
      "lon": -3.75079666851,
      "snapped": true,
      "distance_m": 3,
      "segment_id": 2374,
      "snap_point": [
        -3.75081,
        55.884277
      ]
    },
    {
      "crs": "BKS",
      "name": "Bekesbourne Rail Station",
      "lat": 51.26135755917,
      "lon": 1.13670784046,
      "snapped": true,
      "distance_m": 17.4,
      "segment_id": 4689,
      "snap_point": [
        1.136805,
        51.261502
      ]
    },
    {
      "crs": "BKT",
      "name": "Blake Street Rail Station",
      "lat": 52.60488473632,
      "lon": -1.84491438218,
      "snapped": true,
      "distance_m": 5.8,
      "segment_id": 1202,
      "snap_point": [
        -1.844828,
        52.60489
      ]
    },
    {
      "crs": "BKW",
      "name": "Berkswell Rail Station",
      "lat": 52.39588092817,
      "lon": -1.6428402938,
      "snapped": true,
      "distance_m": 53.1,
      "segment_id": 2717,
      "snap_point": [
        -1.64245,
        52.396297
      ]
    },
    {
      "crs": "BLA",
      "name": "Blair Atholl Rail Station",
      "lat": 56.7655459781,
      "lon": -3.85022795996,
      "snapped": true,
      "distance_m": 23.8,
      "segment_id": 4134,
      "snap_point": [
        -3.850274,
        56.765332
      ]
    },
    {
      "crs": "BLB",
      "name": "Battlesbridge Rail Station",
      "lat": 51.62482540254,
      "lon": 0.56528563473,
      "snapped": false,
      "distance_m": 7904.6,
      "segment_id": 5496,
      "snap_point": [
        0.517345,
        51.559921
      ]
    },
    {
      "crs": "BLD",
      "name": "Baildon Rail Station",
      "lat": 53.85022428912,
      "lon": -1.75363618902,
      "snapped": false,
      "distance_m": 758.9,
      "segment_id": 5479,
      "snap_point": [
        -1.746468,
        53.844841
      ]
    },
    {
      "crs": "BLE",
      "name": "Bramley (West Yorks) Rail Station",
      "lat": 53.80534873272,
      "lon": -1.63720617396,
      "snapped": true,
      "distance_m": 2,
      "segment_id": 1690,
      "snap_point": [
        -1.637194,
        53.805366
      ]
    },
    {
      "crs": "BLG",
      "name": "Bellgrove Rail Station",
      "lat": 55.85670421885,
      "lon": -4.22437393276,
      "snapped": true,
      "distance_m": 4.4,
      "segment_id": 2343,
      "snap_point": [
        -4.224391,
        55.856666
      ]
    },
    {
      "crs": "BLH",
      "name": "Bellshill Rail Station",
      "lat": 55.81706346181,
      "lon": -4.02449908366,
      "snapped": true,
      "distance_m": 1.5,
      "segment_id": 3821,
      "snap_point": [
        -4.0245,
        55.81705
      ]
    },
    {
      "crs": "BLI",
      "name": "Blyth Bebside Rail Station",
      "lat": 55.12486,
      "lon": -1.55711,
      "snapped": true,
      "distance_m": 8,
      "segment_id": 5745,
      "snap_point": [
        -1.556994,
        55.124887
      ]
    },
    {
      "crs": "BLK",
      "name": "Blackrod Rail Station",
      "lat": 53.59152198029,
      "lon": -2.5695239431,
      "snapped": true,
      "distance_m": 35.8,
      "segment_id": 3376,
      "snap_point": [
        -2.569938,
        53.591313
      ]
    },
    {
      "crs": "BLL",
      "name": "Bardon Mill Rail Station",
      "lat": 54.97449361588,
      "lon": -2.34650443635,
      "snapped": true,
      "distance_m": 11.2,
      "segment_id": 3130,
      "snap_point": [
        -2.346491,
        54.974594
      ]
    },
    {
      "crs": "BLM",
      "name": "Belmont Rail Station",
      "lat": 51.34381479967,
      "lon": -0.19885504531,
      "snapped": true,
      "distance_m": 1.7,
      "segment_id": 5568,
      "snap_point": [
        -0.198879,
        51.343817
      ]
    },
    {
      "crs": "BLN",
      "name": "Blundellsands & Crosby Rail Station",
      "lat": 53.48768343484,
      "lon": -3.03985977525,
      "snapped": true,
      "distance_m": 26.8,
      "segment_id": 5676,
      "snap_point": [
        -3.040199,
        53.48755
      ]
    },
    {
      "crs": "BLO",
      "name": "Blaydon Rail Station",
      "lat": 54.96578851561,
      "lon": -1.71258069635,
      "snapped": true,
      "distance_m": 13.9,
      "segment_id": 3130,
      "snap_point": [
        -1.71254,
        54.965912
      ]
    },
    {
      "crs": "BLP",
      "name": "Belper Rail Station",
      "lat": 53.02375839072,
      "lon": -1.48251034169,
      "snapped": true,
      "distance_m": 0,
      "segment_id": 2671,
      "snap_point": [
        -1.48251,
        53.023758
      ]
    },
    {
      "crs": "BLT",
      "name": "Blantyre Rail Station",
      "lat": 55.7973256008,
      "lon": -4.08697074349,
      "snapped": true,
      "distance_m": 0.6,
      "segment_id": 2387,
      "snap_point": [
        -4.086977,
        55.797321
      ]
    },
    {
      "crs": "BLV",
      "name": "Belle Vue Rail Station",
      "lat": 53.46237460502,
      "lon": -2.18050695949,
      "snapped": true,
      "distance_m": 1.7,
      "segment_id": 1587,
      "snap_point": [
        -2.180532,
        53.46237
      ]
    },
    {
      "crs": "BLW",
      "name": "Bulwell Rail Station",
      "lat": 52.99969548849,
      "lon": -1.19623043989,
      "snapped": true,
      "distance_m": 49.7,
      "segment_id": 1199,
      "snap_point": [
        -1.195538,
        52.999533
      ]
    },
    {
      "crs": "BLX",
      "name": "Bloxwich Rail Station",
      "lat": 52.6182002707,
      "lon": -2.01147782643,
      "snapped": true,
      "distance_m": 1.5,
      "segment_id": 1870,
      "snap_point": [
        -2.011458,
        52.618206
      ]
    },
    {
      "crs": "BLY",
      "name": "Bletchley Rail Station",
      "lat": 51.99533445318,
      "lon": -0.73632041809,
      "snapped": true,
      "distance_m": 0.7,
      "segment_id": 3421,
      "snap_point": [
        -0.73631,
        51.995336
      ]
    },
    {
      "crs": "BMB",
      "name": "Bamber Bridge Rail Station",
      "lat": 53.72686651197,
      "lon": -2.66077497771,
      "snapped": true,
      "distance_m": 2.3,
      "segment_id": 4080,
      "snap_point": [
        -2.660772,
        53.726888
      ]
    },
    {
      "crs": "BMC",
      "name": "Bromley Cross Rail Station",
      "lat": 53.61404075006,
      "lon": -2.41089878029,
      "snapped": true,
      "distance_m": 8.9,
      "segment_id": 3217,
      "snap_point": [
        -2.410774,
        53.61401
      ]
    },
    {
      "crs": "BMD",
      "name": "Brimsdown Rail Station",
      "lat": 51.65558336605,
      "lon": -0.03081734996,
      "snapped": true,
      "distance_m": 0.2,
      "segment_id": 5189,
      "snap_point": [
        -0.030815,
        51.655583
      ]
    },
    {
      "crs": "BME",
      "name": "Broome Rail Station",
      "lat": 52.42277157928,
      "lon": -2.88520749901,
      "snapped": true,
      "distance_m": 4.4,
      "segment_id": 1969,
      "snap_point": [
        -2.885164,
        52.422742
      ]
    },
    {
      "crs": "BMF",
      "name": "Broomfleet Rail Station",
      "lat": 53.74020822243,
      "lon": -0.67182831364,
      "snapped": true,
      "distance_m": 1.7,
      "segment_id": 1862,
      "snap_point": [
        -0.671834,
        53.740193
      ]
    },
    {
      "crs": "BMG",
      "name": "Barming Rail Station",
      "lat": 51.28489519974,
      "lon": 0.47895820334,
      "snapped": true,
      "distance_m": 16,
      "segment_id": 4624,
      "snap_point": [
        0.479104,
        51.284784
      ]
    },
    {
      "crs": "BMH",
      "name": "Bournemouth Rail Station",
      "lat": 50.72727332144,
      "lon": -1.86450294675,
      "snapped": true,
      "distance_m": 1.6,
      "segment_id": 5407,
      "snap_point": [
        -1.864514,
        50.727261
      ]
    },
    {
      "crs": "BML",
      "name": "Bramhall Rail Station",
      "lat": 53.36061266009,
      "lon": -2.16359260384,
      "snapped": true,
      "distance_m": 17.8,
      "segment_id": 765,
      "snap_point": [
        -2.163414,
        53.360733
      ]
    },
    {
      "crs": "BMN",
      "name": "Bromley North Rail Station",
      "lat": 51.40832772238,
      "lon": 0.01699272077,
      "snapped": true,
      "distance_m": 95.1,
      "segment_id": 5757,
      "snap_point": [
        0.017746,
        51.409047
      ]
    },
    {
      "crs": "BMO",
      "name": "Birmingham Moor Street Rail Station",
      "lat": 52.4790792138,
      "lon": -1.89247250732,
      "snapped": true,
      "distance_m": 3.1,
      "segment_id": 932,
      "snap_point": [
        -1.892448,
        52.479103
      ]
    },
    {
      "crs": "BMP",
      "name": "Brampton (Cumbria) Rail Station",
      "lat": 54.93239027981,
      "lon": -2.7029471921,
      "snapped": true,
      "distance_m": 0.6,
      "segment_id": 3130,
      "snap_point": [
        -2.702943,
        54.932385
      ]
    },
    {
      "crs": "BMR",
      "name": "Bromborough Rake Rail Station",
      "lat": 53.32990619305,
      "lon": -2.98946892637,
      "snapped": true,
      "distance_m": 38.2,
      "segment_id": 2054,
      "snap_point": [
        -2.99003,
        53.32983
      ]
    },
    {
      "crs": "BMS",
      "name": "Bromley South Rail Station",
      "lat": 51.39997631561,
      "lon": 0.01734411348,
      "snapped": true,
      "distance_m": 1.7,
      "segment_id": 4620,
      "snap_point": [
        0.017347,
        51.399992
      ]
    },
    {
      "crs": "BMT",
      "name": "Bedminster Rail Station",
      "lat": 51.44008788321,
      "lon": -2.594148945,
      "snapped": true,
      "distance_m": 27,
      "segment_id": 4235,
      "snap_point": [
        -2.594359,
        51.440293
      ]
    },
    {
      "crs": "BMV",
      "name": "Bromsgrove Rail Station",
      "lat": 52.32060414512,
      "lon": -2.04977859201,
      "snapped": true,
      "distance_m": 4.6,
      "segment_id": 638,
      "snap_point": [
        -2.049723,
        52.32058
      ]
    },
    {
      "crs": "BMY",
      "name": "Bramley (Hants) Rail Station",
      "lat": 51.33029324397,
      "lon": -1.06100267378,
      "snapped": true,
      "distance_m": 2.4,
      "segment_id": 387,
      "snap_point": [
        -1.06097,
        51.330299
      ]
    },
    {
      "crs": "BNA",
      "name": "Burnage Rail Station",
      "lat": 53.42116681578,
      "lon": -2.21567811439,
      "snapped": true,
      "distance_m": 1.7,
      "segment_id": 787,
      "snap_point": [
        -2.215702,
        53.421171
      ]
    },
    {
      "crs": "BNC",
      "name": "Burnley Central Rail Station",
      "lat": 53.79351214201,
      "lon": -2.24497101878,
      "snapped": true,
      "distance_m": 3.3,
      "segment_id": 5654,
      "snap_point": [
        -2.245008,
        53.793532
      ]
    },
    {
      "crs": "BND",
      "name": "Brandon Rail Station",
      "lat": 52.4540074224,
      "lon": 0.62473186797,
      "snapped": true,
      "distance_m": 10.4,
      "segment_id": 597,
      "snap_point": [
        0.624743,
        52.453914
      ]
    },
    {
      "crs": "BNE",
      "name": "Bourne End Rail Station",
      "lat": 51.57711790146,
      "lon": -0.71047346012,
      "snapped": true,
      "distance_m": 7.3,
      "segment_id": 5705,
      "snap_point": [
        -0.710422,
        51.57706
      ]
    },
    {
      "crs": "BNF",
      "name": "Briton Ferry Rail Station",
      "lat": 51.6378959702,
      "lon": -3.81925224618,
      "snapped": true,
      "distance_m": 51.5,
      "segment_id": 1944,
      "snap_point": [
        -3.819992,
        51.637953
      ]
    },
    {
      "crs": "BNG",
      "name": "Bangor (Gwynedd) Rail Station",
      "lat": 53.22228257233,
      "lon": -4.13587993187,
      "snapped": true,
      "distance_m": 42.6,
      "segment_id": 2168,
      "snap_point": [
        -4.135628,
        53.222637
      ]
    },
    {
      "crs": "BNH",
      "name": "Barnehurst Rail Station",
      "lat": 51.46495912931,
      "lon": 0.15964630799,
      "snapped": true,
      "distance_m": 5.1,
      "segment_id": 5035,
      "snap_point": [
        0.159651,
        51.465005
      ]
    },
    {
      "crs": "BNI",
      "name": "Barnes Bridge Rail Station",
      "lat": 51.47200852133,
      "lon": -0.25263015589,
      "snapped": true,
      "distance_m": 1.7,
      "segment_id": 5127,
      "snap_point": [
        -0.252647,
        51.471998
      ]
    },
    {
      "crs": "BNL",
      "name": "Barnhill Rail Station",
      "lat": 55.87748980519,
      "lon": -4.2230048768,
      "snapped": true,
      "distance_m": 0.1,
      "segment_id": 5690,
      "snap_point": [
        -4.223004,
        55.87749
      ]
    },
    {
      "crs": "BNM",
      "name": "Burnham (Berks) Rail Station",
      "lat": 51.52350552292,
      "lon": -0.64637373865,
      "snapped": true,
      "distance_m": 11.3,
      "segment_id": 5445,
      "snap_point": [
        -0.6464,
        51.523404
      ]
    },
    {
      "crs": "BNP",
      "name": "Barnstaple Rail Station",
      "lat": 51.07396953324,
      "lon": -4.06311685349,
      "snapped": true,
      "distance_m": 27,
      "segment_id": 1803,
      "snap_point": [
        -4.063357,
        51.073778
      ]
    },
    {
      "crs": "BNR",
      "name": "Brockley Whins Rail Station",
      "lat": 54.95954405686,
      "lon": -1.46135324951,
      "snapped": true,
      "distance_m": 7.3,
      "segment_id": 1243,
      "snap_point": [
        -1.461338,
        54.959478
      ]
    },
    {
      "crs": "BNS",
      "name": "Barnes Rail Station",
      "lat": 51.46708608626,
      "lon": -0.24216421148,
      "snapped": true,
      "distance_m": 3.1,
      "segment_id": 5116,
      "snap_point": [
        -0.242177,
        51.467059
      ]
    },
    {
      "crs": "BNT",
      "name": "Brinnington Rail Station",
      "lat": 53.4321164629,
      "lon": -2.13511987886,
      "snapped": true,
      "distance_m": 18.4,
      "segment_id": 1587,
      "snap_point": [
        -2.134973,
        53.432258
      ]
    },
    {
      "crs": "BNV",
      "name": "Banavie Rail Station",
      "lat": 56.84330826717,
      "lon": -5.09542558529,
      "snapped": true,
      "distance_m": 21.1,
      "segment_id": 3360,
      "snap_point": [
        -5.095177,
        56.843441
      ]
    },
    {
      "crs": "BNW",
      "name": "Bootle New Strand Rail Station",
      "lat": 53.45338857285,
      "lon": -2.99474724324,
      "snapped": true,
      "distance_m": 9.3,
      "segment_id": 5677,
      "snap_point": [
        -2.994607,
        53.453388
      ]
    },
    {
      "crs": "BNY",
      "name": "Barnsley Rail Station",
      "lat": 53.5543007868,
      "lon": -1.47716468299,
      "snapped": true,
      "distance_m": 8.2,
      "segment_id": 1744,
      "snap_point": [
        -1.477288,
        53.554297
      ]
    },
    {
      "crs": "BOA",
      "name": "Bradford-on-Avon Rail Station",
      "lat": 51.34491417881,
      "lon": -2.25232664173,
      "snapped": true,
      "distance_m": 7.1,
      "segment_id": 990,
      "snap_point": [
        -2.25231,
        51.344851
      ]
    },
    {
      "crs": "BOC",
      "name": "Bootle (Cumbria) Rail Station",
      "lat": 54.29130200795,
      "lon": -3.39386164194,
      "snapped": true,
      "distance_m": 2.2,
      "segment_id": 2993,
      "snap_point": [
        -3.393895,
        54.291299
      ]
    },
    {
      "crs": "BOD",
      "name": "Bodmin Parkway Rail Station",
      "lat": 50.44586275658,
      "lon": -4.66292835108,
      "snapped": true,
      "distance_m": 6.1,
      "segment_id": 435,
      "snap_point": [
        -4.66297,
        50.445911
      ]
    },
    {
      "crs": "BOE",
      "name": "Botley Rail Station",
      "lat": 50.91645426939,
      "lon": -1.25923637574,
      "snapped": true,
      "distance_m": 1.5,
      "segment_id": 3095,
      "snap_point": [
        -1.259223,
        50.916465
      ]
    },
    {
      "crs": "BOG",
      "name": "Bognor Regis Rail Station",
      "lat": 50.78655905574,
      "lon": -0.67617820083,
      "snapped": true,
      "distance_m": 33.7,
      "segment_id": 1277,
      "snap_point": [
        -0.676251,
        50.786861
      ]
    },
    {
      "crs": "BOH",
      "name": "Bosham Rail Station",
      "lat": 50.84274761945,
      "lon": -0.84743114151,
      "snapped": true,
      "distance_m": 11.3,
      "segment_id": 1419,
      "snap_point": [
        -0.847408,
        50.842849
      ]
    },
    {
      "crs": "BOM",
      "name": "Bromborough Rail Station",
      "lat": 53.32184635744,
      "lon": -2.98689536144,
      "snapped": true,
      "distance_m": 1.5,
      "segment_id": 2072,
      "snap_point": [
        -2.986918,
        53.321843
      ]
    },
    {
      "crs": "BON",
      "name": "Bolton Rail Station",
      "lat": 53.57414325233,
      "lon": -2.42582463782,
      "snapped": true,
      "distance_m": 2.6,
      "segment_id": 3840,
      "snap_point": [
        -2.425858,
        53.57413
      ]
    },
    {
      "crs": "BOP",
      "name": "Bowes Park Rail Station",
      "lat": 51.60701187896,
      "lon": -0.12058187383,
      "snapped": true,
      "distance_m": 3.5,
      "segment_id": 3730,
      "snap_point": [
        -0.120537,
        51.606997
      ]
    },
    {
      "crs": "BOR",
      "name": "Bodorgan Rail Station",
      "lat": 53.20430193864,
      "lon": -4.41800318822,
      "snapped": true,
      "distance_m": 31.4,
      "segment_id": 2152,
      "snap_point": [
        -4.417814,
        53.204562
      ]
    },
    {
      "crs": "BOT",
      "name": "Bootle Oriel Road Rail Station",
      "lat": 53.44662072206,
      "lon": -2.9957333951,
      "snapped": true,
      "distance_m": 3,
      "segment_id": 5677,
      "snap_point": [
        -2.995688,
        53.446623
      ]
    },
    {
      "crs": "BOW",
      "name": "Bow Street",
      "lat": 52.439914,
      "lon": -4.03036,
      "snapped": true,
      "distance_m": 1.3,
      "segment_id": 2584,
      "snap_point": [
        -4.030378,
        52.439918
      ]
    },
    {
      "crs": "BPA",
      "name": "Beaulieu Park",
      "lat": 51.758057,
      "lon": 0.5183357,
      "snapped": true,
      "distance_m": 72.3,
      "segment_id": 3551,
      "snap_point": [
        0.518983,
        51.757542
      ]
    },
    {
      "crs": "BPB",
      "name": "Blackpool Pleasure Beach Rail Station",
      "lat": 53.78795223343,
      "lon": -3.05387595473,
      "snapped": false,
      "distance_m": 3837.3,
      "segment_id": 4681,
      "snap_point": [
        -3.048756,
        53.822522
      ]
    },
    {
      "crs": "BPC",
      "name": "Penychain Rail Station",
      "lat": 52.90288333146,
      "lon": -4.33872152373,
      "snapped": true,
      "distance_m": 0.9,
      "segment_id": 5921,
      "snap_point": [
        -4.33872,
        52.902875
      ]
    },
    {
      "crs": "BPK",
      "name": "Brookmans Park Rail Station",
      "lat": 51.72106176439,
      "lon": -0.20454864997,
      "snapped": true,
      "distance_m": 6.5,
      "segment_id": 3721,
      "snap_point": [
        -0.204642,
        51.721055
      ]
    },
    {
      "crs": "BPN",
      "name": "Blackpool North Rail Station",
      "lat": 53.8219148148,
      "lon": -3.04927465351,
      "snapped": true,
      "distance_m": 73.9,
      "segment_id": 4058,
      "snap_point": [
        -3.049024,
        53.822566
      ]
    },
    {
      "crs": "BPS",
      "name": "Blackpool South Rail Station",
      "lat": 53.79870074739,
      "lon": -3.04893781212,
      "snapped": false,
      "distance_m": 2634,
      "segment_id": 4681,
      "snap_point": [
        -3.048756,
        53.822522
      ]
    },
    {
      "crs": "BPT",
      "name": "Bishopton Rail Station",
      "lat": 55.90226398296,
      "lon": -4.50048646597,
      "snapped": true,
      "distance_m": 10.1,
      "segment_id": 2266,
      "snap_point": [
        -4.500624,
        55.902217
      ]
    },
    {
      "crs": "BPW",
      "name": "Bristol Parkway Rail Station",
      "lat": 51.51380121061,
      "lon": -2.54216306394,
      "snapped": true,
      "distance_m": 0.4,
      "segment_id": 3168,
      "snap_point": [
        -2.542162,
        51.513805
      ]
    },
    {
      "crs": "BRA",
      "name": "Brora Rail Station",
      "lat": 58.01295022404,
      "lon": -3.85228286576,
      "snapped": true,
      "distance_m": 1.2,
      "segment_id": 2467,
      "snap_point": [
        -3.852303,
        58.012949
      ]
    },
    {
      "crs": "BRC",
      "name": "Breich Rail Station",
      "lat": 55.8273122529,
      "lon": -3.66812513594,
      "snapped": true,
      "distance_m": 1.5,
      "segment_id": 3313,
      "snap_point": [
        -3.668114,
        55.8273
      ]
    },
    {
      "crs": "BRE",
      "name": "Brentwood Rail Station",
      "lat": 51.61360524407,
      "lon": 0.29958588082,
      "snapped": true,
      "distance_m": 5.3,
      "segment_id": 3551,
      "snap_point": [
        0.299575,
        51.613557
      ]
    },
    {
      "crs": "BRF",
      "name": "Brierfield Rail Station",
      "lat": 53.82398039818,
      "lon": -2.23648991236,
      "snapped": true,
      "distance_m": 1.4,
      "segment_id": 5654,
      "snap_point": [
        -2.23651,
        53.823985
      ]
    },
    {
      "crs": "BRG",
      "name": "Borough Green & Wrotham Rail Station",
      "lat": 51.29321924328,
      "lon": 0.30624506129,
      "snapped": true,
      "distance_m": 6.8,
      "segment_id": 4624,
      "snap_point": [
        0.306249,
        51.293158
      ]
    },
    {
      "crs": "BRH",
      "name": "Borth Rail Station",
      "lat": 52.49102699728,
      "lon": -4.05017619082,
      "snapped": true,
      "distance_m": 35.4,
      "segment_id": 2584,
      "snap_point": [
        -4.049654,
        52.491033
      ]
    },
    {
      "crs": "BRI",
      "name": "Bristol Temple Meads Rail Station",
      "lat": 51.44914390068,
      "lon": -2.58131524969,
      "snapped": true,
      "distance_m": 40.1,
      "segment_id": 986,
      "snap_point": [
        -2.580748,
        51.449074
      ]
    },
    {
      "crs": "BRK",
      "name": "Berwick (Sussex) Rail Station",
      "lat": 50.84037829148,
      "lon": 0.16601770049,
      "snapped": true,
      "distance_m": 3.3,
      "segment_id": 1250,
      "snap_point": [
        0.165987,
        50.840356
      ]
    },
    {
      "crs": "BRL",
      "name": "Barrhill Rail Station",
      "lat": 55.0970046483,
      "lon": -4.7817810548,
      "snapped": true,
      "distance_m": 6,
      "segment_id": 5823,
      "snap_point": [
        -4.781872,
        55.096992
      ]
    },
    {
      "crs": "BRM",
      "name": "Barmouth Rail Station",
      "lat": 52.72289056744,
      "lon": -4.05659575006,
      "snapped": true,
      "distance_m": 40.7,
      "segment_id": 5931,
      "snap_point": [
        -4.057056,
        52.722653
      ]
    },
    {
      "crs": "BRN",
      "name": "Bearsden Rail Station",
      "lat": 55.91712933401,
      "lon": -4.33202012839,
      "snapped": true,
      "distance_m": 1.2,
      "segment_id": 2412,
      "snap_point": [
        -4.33203,
        55.917139
      ]
    },
    {
      "crs": "BRO",
      "name": "Bridge of Orchy Rail Station",
      "lat": 56.5158669878,
      "lon": -4.76299278027,
      "snapped": true,
      "distance_m": 56.1,
      "segment_id": 3359,
      "snap_point": [
        -4.763863,
        56.515711
      ]
    },
    {
      "crs": "BRP",
      "name": "Brampton (Suffolk) Rail Station",
      "lat": 52.39543504347,
      "lon": 1.54381076638,
      "snapped": true,
      "distance_m": 1.9,
      "segment_id": 5624,
      "snap_point": [
        1.543783,
        52.395439
      ]
    },
    {
      "crs": "BRR",
      "name": "Barrhead Rail Station",
      "lat": 55.80375299006,
      "lon": -4.39728326663,
      "snapped": true,
      "distance_m": 11.3,
      "segment_id": 5805,
      "snap_point": [
        -4.397399,
        55.803832
      ]
    },
    {
      "crs": "BRS",
      "name": "Berrylands Rail Station",
      "lat": 51.39904518396,
      "lon": -0.28071358953,
      "snapped": true,
      "distance_m": 1.5,
      "segment_id": 5067,
      "snap_point": [
        -0.28072,
        51.399058
      ]
    },
    {
      "crs": "BRT",
      "name": "Barlaston Rail Station",
      "lat": 52.942872159,
      "lon": -2.16811110844,
      "snapped": true,
      "distance_m": 8.8,
      "segment_id": 2806,
      "snap_point": [
        -2.16824,
        52.942858
      ]
    },
    {
      "crs": "BRU",
      "name": "Bruton Rail Station",
      "lat": 51.11163892514,
      "lon": -2.44707347109,
      "snapped": true,
      "distance_m": 5,
      "segment_id": 400,
      "snap_point": [
        -2.447106,
        51.111679
      ]
    },
    {
      "crs": "BRV",
      "name": "Bournville Rail Station",
      "lat": 52.42696311913,
      "lon": -1.9264238296,
      "snapped": true,
      "distance_m": 4.7,
      "segment_id": 4201,
      "snap_point": [
        -1.926491,
        52.426955
      ]
    },
    {
      "crs": "BRW",
      "name": "Brunswick Rail Station",
      "lat": 53.38324037885,
      "lon": -2.97607686688,
      "snapped": true,
      "distance_m": 0.9,
      "segment_id": 2179,
      "snap_point": [
        -2.976089,
        53.383237
      ]
    },
    {
      "crs": "BRX",
      "name": "Brixton Rail Station",
      "lat": 51.46329892555,
      "lon": -0.11418339852,
      "snapped": true,
      "distance_m": 5.9,
      "segment_id": 4599,
      "snap_point": [
        -0.114225,
        51.463252
      ]
    },
    {
      "crs": "BRY",
      "name": "Barry Rail Station",
      "lat": 51.3967826006,
      "lon": -3.28498436634,
      "snapped": true,
      "distance_m": 10.4,
      "segment_id": 5902,
      "snap_point": [
        -3.284862,
        51.396728
      ]
    },
    {
      "crs": "BSB",
      "name": "Bleasby Rail Station",
      "lat": 53.04136506073,
      "lon": -0.94368743637,
      "snapped": true,
      "distance_m": 0.1,
      "segment_id": 1631,
      "snap_point": [
        -0.943689,
        53.041366
      ]
    },
    {
      "crs": "BSC",
      "name": "Bescot Stadium Rail Station",
      "lat": 52.56309313612,
      "lon": -1.9911054766,
      "snapped": true,
      "distance_m": 3.6,
      "segment_id": 1871,
      "snap_point": [
        -1.991134,
        52.563065
      ]
    },
    {
      "crs": "BSD",
      "name": "Bearsted Rail Station",
      "lat": 51.27582146224,
      "lon": 0.57758048241,
      "snapped": true,
      "distance_m": 10.4,
      "segment_id": 4625,
      "snap_point": [
        0.57763,
        51.27591
      ]
    },
    {
      "crs": "BSE",
      "name": "Bury St Edmunds Rail Station",
      "lat": 52.25376334229,
      "lon": 0.71330680091,
      "snapped": true,
      "distance_m": 22.2,
      "segment_id": 471,
      "snap_point": [
        0.713291,
        52.253562
      ]
    },
    {
      "crs": "BSH",
      "name": "Bushey Rail Station",
      "lat": 51.64558157546,
      "lon": -0.38474907806,
      "snapped": true,
      "distance_m": 1.4,
      "segment_id": 5964,
      "snap_point": [
        -0.38473,
        51.64558
      ]
    },
    {
      "crs": "BSI",
      "name": "Balmossie Rail Station",
      "lat": 56.47456561313,
      "lon": -2.83895577579,
      "snapped": true,
      "distance_m": 0.5,
      "segment_id": 3694,
      "snap_point": [
        -2.838951,
        56.474561
      ]
    },
    {
      "crs": "BSJ",
      "name": "Bedford St Johns Rail Station",
      "lat": 52.1294781518,
      "lon": -0.46750094804,
      "snapped": true,
      "distance_m": 16.7,
      "segment_id": 3247,
      "snap_point": [
        -0.467663,
        52.129365
      ]
    },
    {
      "crs": "BSK",
      "name": "Basingstoke Rail Station",
      "lat": 51.26835691303,
      "lon": -1.08726371896,
      "snapped": true,
      "distance_m": 15.8,
      "segment_id": 3106,
      "snap_point": [
        -1.0873,
        51.268498
      ]
    },
    {
      "crs": "BSL",
      "name": "Beasdale Rail Station",
      "lat": 56.89955381334,
      "lon": -5.76380147353,
      "snapped": true,
      "distance_m": 55,
      "segment_id": 3417,
      "snap_point": [
        -5.763873,
        56.900049
      ]
    },
    {
      "crs": "BSM",
      "name": "Branksome Rail Station",
      "lat": 50.72696460406,
      "lon": -1.91975819978,
      "snapped": true,
      "distance_m": 1.4,
      "segment_id": 5409,
      "snap_point": [
        -1.919764,
        50.726976
      ]
    },
    {
      "crs": "BSN",
      "name": "Boston Rail Station",
      "lat": 52.9780899418,
      "lon": -0.03100315227,
      "snapped": true,
      "distance_m": 14.1,
      "segment_id": 3021,
      "snap_point": [
        -0.031208,
        52.978121
      ]
    },
    {
      "crs": "BSO",
      "name": "Basildon Rail Station",
      "lat": 51.56810648734,
      "lon": 0.4567889653,
      "snapped": true,
      "distance_m": 2,
      "segment_id": 5517,
      "snap_point": [
        0.456787,
        51.568125
      ]
    },
    {
      "crs": "BSP",
      "name": "Brondesbury Park Rail Station",
      "lat": 51.54069912107,
      "lon": -0.21012758605,
      "snapped": true,
      "distance_m": 1.3,
      "segment_id": 4374,
      "snap_point": [
        -0.210143,
        51.540706
      ]
    },
    {
      "crs": "BSR",
      "name": "Broadstairs Rail Station",
      "lat": 51.36067475347,
      "lon": 1.43356069938,
      "snapped": true,
      "distance_m": 6.9,
      "segment_id": 5470,
      "snap_point": [
        1.433464,
        51.360662
      ]
    },
    {
      "crs": "BSS",
      "name": "Barassie Rail Station",
      "lat": 55.56105870797,
      "lon": -4.65113849796,
      "snapped": true,
      "distance_m": 5.9,
      "segment_id": 5837,
      "snap_point": [
        -4.651231,
        55.561049
      ]
    },