{
  "generated_at": "2026-07-15T09:30:49.742Z",
  "tolerance_m": 200,
  "station_count": 2637,
  "snapped_count": 2543,
  "unsnapped_count": 94,
  "results": [
    {
      "crs": "AAP",
      "name": "Alexandra Palace Rail Station",
      "lat": 51.59792399595,
      "lon": -0.12023513932,
      "snapped": true,
      "distance_m": 2.6,
      "segment_id": 3754,
      "snap_point": [
        -0.120203,
        51.597937
      ],
      "edge_index": 9,
      "edge_t": 0.300653
    },
    {
      "crs": "AAT",
      "name": "Achanalt Rail Station",
      "lat": 57.60959583643,
      "lon": -4.91385125753,
      "snapped": true,
      "distance_m": 0.1,
      "segment_id": 2862,
      "snap_point": [
        -4.913851,
        57.609595
      ],
      "edge_index": 264,
      "edge_t": 0.523678
    },
    {
      "crs": "ABA",
      "name": "Aberdare Rail Station",
      "lat": 51.71505790608,
      "lon": -3.44308344608,
      "snapped": true,
      "distance_m": 138.2,
      "segment_id": 1482,
      "snap_point": [
        -3.441439,
        51.714344
      ],
      "edge_index": 20,
      "edge_t": 1
    },
    {
      "crs": "ABC",
      "name": "Altnabreac Rail Station",
      "lat": 58.38814827615,
      "lon": -3.70628021863,
      "snapped": true,
      "distance_m": 3.9,
      "segment_id": 2521,
      "snap_point": [
        -3.706232,
        58.388124
      ],
      "edge_index": 123,
      "edge_t": 0.977845
    },
    {
      "crs": "ABD",
      "name": "Aberdeen Rail Station",
      "lat": 57.14370402316,
      "lon": -2.0986851221,
      "snapped": true,
      "distance_m": 27.1,
      "segment_id": 3791,
      "snap_point": [
        -2.09905,
        57.143561
      ],
      "edge_index": 21,
      "edge_t": 0.916124
    },
    {
      "crs": "ABE",
      "name": "Aber Rail Station",
      "lat": 51.5749655354,
      "lon": -3.22982847743,
      "snapped": true,
      "distance_m": 1.9,
      "segment_id": 2048,
      "snap_point": [
        -3.229853,
        51.574958
      ],
      "edge_index": 253,
      "edge_t": 0.153679
    },
    {
      "crs": "ABH",
      "name": "Abererch Rail Station",
      "lat": 52.89858306624,
      "lon": -4.37417543673,
      "snapped": true,
      "distance_m": 10.2,
      "segment_id": 6021,
      "snap_point": [
        -4.374139,
        52.898493
      ],
      "edge_index": 43,
      "edge_t": 0.745045
    },
    {
      "crs": "ABW",
      "name": "Abbey Wood (London) Rail Station",
      "lat": 51.49106246827,
      "lon": 0.12139411536,
      "snapped": true,
      "distance_m": 2.3,
      "segment_id": 2589,
      "snap_point": [
        0.121392,
        51.491083
      ],
      "edge_index": 142,
      "edge_t": 0.296476
    },
    {
      "crs": "ABX",
      "name": "Abbey Wood",
      "lat": null,
      "lon": null,
      "snapped": null,
      "distance_m": null,
      "segment_id": null,
      "snap_point": null,
      "edge_index": null,
      "edge_t": null
    },
    {
      "crs": "ABY",
      "name": "Ashburys Rail Station",
      "lat": 53.47163781038,
      "lon": -2.19443633042,
      "snapped": true,
      "distance_m": 17.6,
      "segment_id": 1588,
      "snap_point": [
        -2.194409,
        53.471796
      ],
      "edge_index": 3,
      "edge_t": 0.949463
    },
    {
      "crs": "ACB",
      "name": "Acton Bridge Rail Station",
      "lat": 53.26650719553,
      "lon": -2.6031265241,
      "snapped": true,
      "distance_m": 2.8,
      "segment_id": 3426,
      "snap_point": [
        -2.603153,
        53.266488
      ],
      "edge_index": 35,
      "edge_t": 0.725184
    },
    {
      "crs": "ACC",
      "name": "Acton Central Rail Station",
      "lat": 51.50871627818,
      "lon": -0.26297061476,
      "snapped": true,
      "distance_m": 9.8,
      "segment_id": 4417,
      "snap_point": [
        -0.262831,
        51.5087
      ],
      "edge_index": 87,
      "edge_t": 0.516858
    },
    {
      "crs": "ACG",
      "name": "Acocks Green Rail Station",
      "lat": 52.44932277674,
      "lon": -1.81897541144,
      "snapped": true,
      "distance_m": 4.6,
      "segment_id": 970,
      "snap_point": [
        -1.818935,
        52.449356
      ],
      "edge_index": 32,
      "edge_t": 0.622833
    },
    {
      "crs": "ACH",
      "name": "Achnashellach Rail Station",
      "lat": 57.4820742655,
      "lon": -5.33305525596,
      "snapped": true,
      "distance_m": 0.7,
      "segment_id": 2845,
      "snap_point": [
        -5.333057,
        57.48208
      ],
      "edge_index": 59,
      "edge_t": 0.751083
    },
    {
      "crs": "ACK",
      "name": "Acklington Rail Station",
      "lat": 55.3070982414,
      "lon": -1.65183461346,
      "snapped": true,
      "distance_m": 0.3,
      "segment_id": 3704,
      "snap_point": [
        -1.651831,
        55.307098
      ],
      "edge_index": 266,
      "edge_t": 0.964197
    },
    {
      "crs": "ACL",
      "name": "Acle Rail Station",
      "lat": 52.63468201731,
      "lon": 1.54391527585,
      "snapped": false,
      "distance_m": 12431.5,
      "segment_id": 442,
      "snap_point": [
        1.399873,
        52.704642
      ],
      "edge_index": 33,
      "edge_t": 1
    },
    {
      "crs": "ACN",
      "name": "Achnasheen Rail Station",
      "lat": 57.57928965421,
      "lon": -5.07233213915,
      "snapped": true,
      "distance_m": 0.9,
      "segment_id": 2865,
      "snap_point": [
        -5.072322,
        57.579284
      ],
      "edge_index": 8,
      "edge_t": 0.122794
    },
    {
      "crs": "ACR",
      "name": "Accrington Rail Station",
      "lat": 53.75297118076,
      "lon": -2.36954777807,
      "snapped": true,
      "distance_m": 1.1,
      "segment_id": 3253,
      "snap_point": [
        -2.369556,
        53.75298
      ],
      "edge_index": 149,
      "edge_t": 0.871048
    },
    {
      "crs": "ACT",
      "name": "Ascot Rail Station",
      "lat": 51.40624365202,
      "lon": -0.6758331694,
      "snapped": true,
      "distance_m": 5.8,
      "segment_id": 5164,
      "snap_point": [
        -0.675856,
        51.406194
      ],
      "edge_index": 133,
      "edge_t": 0.209666
    },
    {
      "crs": "ACY",
      "name": "Abercynon Rail Station",
      "lat": 51.643449909,
      "lon": -3.32856986148,
      "snapped": true,
      "distance_m": 8,
      "segment_id": 1476,
      "snap_point": [
        -3.328655,
        51.643499
      ],
      "edge_index": 0,
      "edge_t": 0.026403
    },
    {
      "crs": "ADC",
      "name": "Adlington (Cheshire) Rail Station",
      "lat": 53.31955397865,
      "lon": -2.13356247282,
      "snapped": true,
      "distance_m": 7.2,
      "segment_id": 3523,
      "snap_point": [
        -2.133669,
        53.319565
      ],
      "edge_index": 96,
      "edge_t": 0.896122
    },
    {
      "crs": "ADD",
      "name": "Adderley Park Rail Station",
      "lat": 52.4830859425,
      "lon": -1.85594442017,
      "snapped": true,
      "distance_m": 4.9,
      "segment_id": 1915,
      "snap_point": [
        -1.855935,
        52.483042
      ],
      "edge_index": 49,
      "edge_t": 0.458636
    },
    {
      "crs": "ADK",
      "name": "Ardwick Rail Station",
      "lat": 53.47154982765,
      "lon": -2.21432180977,
      "snapped": true,
      "distance_m": 2.1,
      "segment_id": 1571,
      "snap_point": [
        -2.214306,
        53.471566
      ],
      "edge_index": 1,
      "edge_t": 0.246749
    },
    {
      "crs": "ADL",
      "name": "Adlington (Lancs) Rail Station",
      "lat": 53.61324428059,
      "lon": -2.60307081313,
      "snapped": true,
      "distance_m": 0.3,
      "segment_id": 3413,
      "snap_point": [
        -2.603074,
        53.613243
      ],
      "edge_index": 136,
      "edge_t": 0.838432
    },
    {
      "crs": "ADM",
      "name": "Adisham Rail Station",
      "lat": 51.24120153594,
      "lon": 1.19908926763,
      "snapped": true,
      "distance_m": 8.5,
      "segment_id": 4713,
      "snap_point": [
        1.198993,
        51.241154
      ],
      "edge_index": 259,
      "edge_t": 0.146678
    },
    {
      "crs": "ADN",
      "name": "Ardrossan Town Rail Station",
      "lat": 55.63970646967,
      "lon": -4.81267519968,
      "snapped": true,
      "distance_m": 2.2,
      "segment_id": 5927,
      "snap_point": [
        -4.812706,
        55.639716
      ],
      "edge_index": 22,
      "edge_t": 0.321145
    },
    {
      "crs": "ADR",
      "name": "Airdrie Rail Station",
      "lat": 55.86397879776,
      "lon": -3.98291206378,
      "snapped": true,
      "distance_m": 1,
      "segment_id": 2443,
      "snap_point": [
        -3.982911,
        55.863969
      ],
      "edge_index": 3,
      "edge_t": 0.889892
    },
    {
      "crs": "ADS",
      "name": "Ardrossan Harbour Rail Station",
      "lat": 55.63987223045,
      "lon": -4.82111037688,
      "snapped": true,
      "distance_m": 128,
      "segment_id": 5927,
      "snap_point": [
        -4.819455,
        55.639198
      ],
      "edge_index": 45,
      "edge_t": 1
    },
    {
      "crs": "ADV",
      "name": "Andover Rail Station",
      "lat": 51.21154688023,
      "lon": -1.49223291317,
      "snapped": true,
      "distance_m": 19.3,
      "segment_id": 1075,
      "snap_point": [
        -1.492392,
        51.21169
      ],
      "edge_index": 173,
      "edge_t": 0.633752
    },
    {
      "crs": "ADW",
      "name": "Addiewell Rail Station",
      "lat": 55.8434089458,
      "lon": -3.60652641249,
      "snapped": true,
      "distance_m": 0.7,
      "segment_id": 3368,
      "snap_point": [
        -3.606522,
        55.843403
      ],
      "edge_index": 129,
      "edge_t": 0.056622
    },
    {
      "crs": "AFK",
      "name": "Ashford International Rail Station",
      "lat": 51.14370585721,
      "lon": 0.87619737944,
      "snapped": true,
      "distance_m": 26.9,
      "segment_id": 2603,
      "snap_point": [
        0.875971,
        51.143509
      ],
      "edge_index": 28,
      "edge_t": 0.802885
    },
    {
      "crs": "AFS",
      "name": "Ashford (Surrey) Rail Station",
      "lat": 51.43650719705,
      "lon": -0.46807091587,
      "snapped": true,
      "distance_m": 0.5,
      "segment_id": 3051,
      "snap_point": [
        -0.468073,
        51.436512
      ],
      "edge_index": 135,
      "edge_t": 0.21868
    },
    {
      "crs": "AFV",
      "name": "Ansdell & Fairhaven Rail Station",
      "lat": 53.74146228451,
      "lon": -2.99303395065,
      "snapped": false,
      "distance_m": 7231.2,
      "segment_id": 4725,
      "snap_point": [
        -2.939245,
        53.798481
      ],
      "edge_index": 153,
      "edge_t": 0
    },
    {
      "crs": "AGL",
      "name": "Abergele & Pensarn Rail Station",
      "lat": 53.29457303057,
      "lon": -3.58262198838,
      "snapped": true,
      "distance_m": 13.9,
      "segment_id": 2128,
      "snap_point": [
        -3.582708,
        53.294688
      ],
      "edge_index": 195,
      "edge_t": 0.805158
    },
    {
      "crs": "AGR",
      "name": "Angel Road Rail Station",
      "lat": 51.61240492759,
      "lon": -0.0487913406,
      "snapped": true,
      "distance_m": 23.8,
      "segment_id": 5218,
      "snap_point": [
        -0.049121,
        51.612465
      ],
      "edge_index": 269,
      "edge_t": 0.69573
    },
    {
      "crs": "AGS",
      "name": "Argyle Street Rail Station",
      "lat": 55.8573039361,
      "lon": -4.25069388384,
      "snapped": true,
      "distance_m": 29.5,
      "segment_id": 2351,
      "snap_point": [
        -4.25062,
        55.857568
      ],
      "edge_index": 98,
      "edge_t": 0.046605
    },
    {
      "crs": "AGT",
      "name": "Aldrington Rail Station",
      "lat": 50.83638383869,
      "lon": -0.18382143408,
      "snapped": true,
      "distance_m": 4.1,
      "segment_id": 84,
      "snap_point": [
        -0.183819,
        50.836421
      ],
      "edge_index": 224,
      "edge_t": 0.154875
    },
    {
      "crs": "AGV",
      "name": "Abergavenny Rail Station",
      "lat": 51.81668982233,
      "lon": -3.0096467989,
      "snapped": true,
      "distance_m": 45,
      "segment_id": 633,
      "snap_point": [
        -3.008996,
        51.816733
      ],
      "edge_index": 608,
      "edge_t": 0.939503
    },
    {
      "crs": "AHD",
      "name": "Ashtead Rail Station",
      "lat": 51.31787379401,
      "lon": -0.30757168547,
      "snapped": true,
      "distance_m": 1,
      "segment_id": 4968,
      "snap_point": [
        -0.307578,
        51.317882
      ],
      "edge_index": 50,
      "edge_t": 0.794161
    },
    {
      "crs": "AHN",
      "name": "Ashton-under-Lyne Rail Station",
      "lat": 53.49127288532,
      "lon": -2.09431227099,
      "snapped": true,
      "distance_m": 7.5,
      "segment_id": 3955,
      "snap_point": [
        -2.094297,
        53.49134
      ],
      "edge_index": 31,
      "edge_t": 0.106963
    },
    {
      "crs": "AHS",
      "name": "Ashurst (Kent) Rail Station",
      "lat": 51.12866279737,
      "lon": 0.15265220319,
      "snapped": true,
      "distance_m": 7.5,
      "segment_id": 5020,
      "snap_point": [
        0.152547,
        51.128647
      ],
      "edge_index": 32,
      "edge_t": 0.995091
    },
    {
      "crs": "AHT",
      "name": "Aldershot Rail Station",
      "lat": 51.24641837711,
      "lon": -0.75985979888,
      "snapped": true,
      "distance_m": 8.7,
      "segment_id": 5095,
      "snap_point": [
        -0.759789,
        51.246354
      ],
      "edge_index": 7,
      "edge_t": 0.3632
    },
    {
      "crs": "AHV",
      "name": "Ash Vale Rail Station",
      "lat": 51.2722469404,
      "lon": -0.72164850871,
      "snapped": true,
      "distance_m": 5.2,
      "segment_id": 5086,
      "snap_point": [
        -0.721711,
        51.272274
      ],
      "edge_index": 22,
      "edge_t": 0.023016
    },
    {
      "crs": "AIG",
      "name": "Aigburth Rail Station",
      "lat": 53.36456492063,
      "lon": -2.92715492547,
      "snapped": true,
      "distance_m": 12.5,
      "segment_id": 2219,
      "snap_point": [
        -2.927056,
        53.364661
      ],
      "edge_index": 40,
      "edge_t": 0.743977
    },
    {
      "crs": "AIN",
      "name": "Aintree Rail Station",
      "lat": 53.47390962432,
      "lon": -2.9562803142,
      "snapped": true,
      "distance_m": 0.1,
      "segment_id": 5776,
      "snap_point": [
        -2.956279,
        53.473909
      ],
      "edge_index": 29,
      "edge_t": 0.272808
    },
    {
      "crs": "AIR",
      "name": "Airbles Rail Station",
      "lat": 55.78283310401,
      "lon": -3.994192441,
      "snapped": true,
      "distance_m": 0.1,
      "segment_id": 2439,
      "snap_point": [
        -3.994192,
        55.782833
      ],
      "edge_index": 65,
      "edge_t": 0.954083
    },
    {
      "crs": "ALB",
      "name": "Albrighton Rail Station",
      "lat": 52.63794224624,
      "lon": -2.26889994437,
      "snapped": true,
      "distance_m": 11.7,
      "segment_id": 752,
      "snap_point": [
        -2.268799,
        52.638028
      ],
      "edge_index": 114,
      "edge_t": 0.840558
    },
    {
      "crs": "ALD",
      "name": "Alderley Edge Rail Station",
      "lat": 53.30378012757,
      "lon": -2.23679906922,
      "snapped": true,
      "distance_m": 6.2,
      "segment_id": 3796,
      "snap_point": [
        -2.236711,
        53.303763
      ],
      "edge_index": 215,
      "edge_t": 0.861503
    },
    {
      "crs": "ALF",
      "name": "Alfreton Rail Station",
      "lat": 53.10043172212,
      "lon": -1.36969607227,
      "snapped": true,
      "distance_m": 8.9,
      "segment_id": 2429,
      "snap_point": [
        -1.369569,
        53.100456
      ],
      "edge_index": 293,
      "edge_t": 0.177721
    },
    {
      "crs": "ALK",
      "name": "Aslockton Rail Station",
      "lat": 52.95154976132,
      "lon": -0.89809752325,
      "snapped": true,
      "distance_m": 0.1,
      "segment_id": 3129,
      "snap_point": [
        -0.898097,
        52.951551
      ],
      "edge_index": 116,
      "edge_t": 0.881028
    },
    {
      "crs": "ALM",
      "name": "Alnmouth Rail Station",
      "lat": 55.39277757806,
      "lon": -1.63663765884,
      "snapped": true,
      "distance_m": 3,
      "segment_id": 4013,
      "snap_point": [
        -1.636672,
        55.39276
      ],
      "edge_index": 693,
      "edge_t": 0.512273
    },
    {
      "crs": "ALN",
      "name": "Althorne Rail Station",
      "lat": 51.6478704748,
      "lon": 0.7524835631,
      "snapped": false,
      "distance_m": 13808.6,
      "segment_id": 5553,
      "snap_point": [
        0.65226,
        51.539817
      ],
      "edge_index": 100,
      "edge_t": 1
    },
    {
      "crs": "ALO",
      "name": "Alloa Rail Station",
      "lat": 56.11778919186,
      "lon": -3.79005562154,
      "snapped": true,
      "distance_m": 5,
      "segment_id": 4463,
      "snap_point": [
        -3.790069,
        56.117834
      ],
      "edge_index": 110,
      "edge_t": 0.583481
    },
    {
      "crs": "ALP",
      "name": "Althorpe Rail Station",
      "lat": 53.58550078559,
      "lon": -0.73318220149,
      "snapped": true,
      "distance_m": 1.6,
      "segment_id": 3555,
      "snap_point": [
        -0.733186,
        53.585515
      ],
      "edge_index": 198,
      "edge_t": 0.170513
    },
    {
      "crs": "ALR",
      "name": "Alresford (Essex) Rail Station",
      "lat": 51.85400078986,
      "lon": 0.9974365883,
      "snapped": true,
      "distance_m": 0.6,
      "segment_id": 3602,
      "snap_point": [
        0.997436,
        51.853995
      ],
      "edge_index": 134,
      "edge_t": 0.208626
    },
    {
      "crs": "ALT",
      "name": "Altrincham Rail Station",
      "lat": 53.38771656569,
      "lon": -2.34688878555,
      "snapped": true,
      "distance_m": 8.6,
      "segment_id": 835,
      "snap_point": [
        -2.347012,
        53.387741
      ],
      "edge_index": 255,
      "edge_t": 0.350817
    },
    {
      "crs": "ALV",
      "name": "Alvechurch Rail Station",
      "lat": 52.34607058592,
      "lon": -1.96766049449,
      "snapped": true,
      "distance_m": 4.1,
      "segment_id": 5974,
      "snap_point": [
        -1.96772,
        52.346065
      ],
      "edge_index": 22,
      "edge_t": 0.987742
    },
    {
      "crs": "ALW",
      "name": "Allens West Rail Station",
      "lat": 54.52462276218,
      "lon": -1.36111669221,
      "snapped": true,
      "distance_m": 0.5,
      "segment_id": 3984,
      "snap_point": [
        -1.361119,
        54.524627
      ],
      "edge_index": 17,
      "edge_t": 0.700551
    },
    {
      "crs": "ALX",
      "name": "Alexandria Rail Station",
      "lat": 55.98508314964,
      "lon": -4.57748423627,
      "snapped": true,
      "distance_m": 0.6,
      "segment_id": 5943,
      "snap_point": [
        -4.577475,
        55.985081
      ],
      "edge_index": 19,
      "edge_t": 0.293379
    },
    {
      "crs": "AMB",
      "name": "Ambergate Rail Station",
      "lat": 53.06051632822,
      "lon": -1.4806974242,
      "snapped": true,
      "distance_m": 11.1,
      "segment_id": 2716,
      "snap_point": [
        -1.480863,
        53.060519
      ],
      "edge_index": 21,
      "edge_t": 0.11202
    },
    {
      "crs": "AMF",
      "name": "Ammanford Rail Station",
      "lat": 51.79597472721,
      "lon": -3.99673488783,
      "snapped": true,
      "distance_m": 4.9,
      "segment_id": 1985,
      "snap_point": [
        -3.996806,
        51.795977
      ],
      "edge_index": 139,
      "edge_t": 0.033976
    },
    {
      "crs": "AML",
      "name": "Acton Main Line Rail Station",
      "lat": 51.51718014558,
      "lon": -0.26675636171,
      "snapped": true,
      "distance_m": 4.8,
      "segment_id": 912,
      "snap_point": [
        -0.266735,
        51.517139
      ],
      "edge_index": 164,
      "edge_t": 0.026643
    },
    {
      "crs": "AMR",
      "name": "Amersham Rail Station",
      "lat": 51.67420579888,
      "lon": -0.60759605596,
      "snapped": true,
      "distance_m": 7.3,
      "segment_id": 4834,
      "snap_point": [
        -0.607621,
        51.674142
      ],
      "edge_index": 3,
      "edge_t": 0.699217
    },
    {
      "crs": "AMT",
      "name": "Aldermaston Rail Station",
      "lat": 51.40196169823,
      "lon": -1.1374238096,
      "snapped": true,
      "distance_m": 0.2,
      "segment_id": 351,
      "snap_point": [
        -1.137425,
        51.401963
      ],
      "edge_index": 287,
      "edge_t": 0.036917
    },
    {
      "crs": "AMY",
      "name": "Amberley Rail Station",
      "lat": 50.89668002212,
      "lon": -0.54199232704,
      "snapped": true,
      "distance_m": 0.7,
      "segment_id": 1421,
      "snap_point": [
        -0.541982,
        50.89668
      ],
      "edge_index": 119,
      "edge_t": 0.166055
    },
    {
      "crs": "ANC",
      "name": "Ancaster Rail Station",
      "lat": 52.98768735647,
      "lon": -0.53562365209,
      "snapped": true,
      "distance_m": 0.7,
      "segment_id": 1520,
      "snap_point": [
        -0.535623,
        52.987681
      ],
      "edge_index": 140,
      "edge_t": 0.220456
    },
    {
      "crs": "AND",
      "name": "Anderston Rail Station",
      "lat": 55.85989696643,
      "lon": -4.27097904299,
      "snapped": true,
      "distance_m": 3.2,
      "segment_id": 2341,
      "snap_point": [
        -4.270985,
        55.859869
      ],
      "edge_index": 68,
      "edge_t": 0.150049
    },
    {
      "crs": "ANF",
      "name": "Ashurst New Forest Rail Station",
      "lat": 50.88985037948,
      "lon": -1.52663069321,
      "snapped": true,
      "distance_m": 8.5,
      "segment_id": 1182,
      "snap_point": [
        -1.526514,
        50.88983
      ],
      "edge_index": 105,
      "edge_t": 0.258427
    },
    {
      "crs": "ANG",
      "name": "Angmering Rail Station",
      "lat": 50.81657531232,
      "lon": -0.48939393986,
      "snapped": true,
      "distance_m": 3.7,
      "segment_id": 1372,
      "snap_point": [
        -0.489395,
        50.816542
      ],
      "edge_index": 170,
      "edge_t": 0.980128
    },
    {
      "crs": "ANL",
      "name": "Anniesland Rail Station",
      "lat": 55.88935027219,
      "lon": -4.32195682994,
      "snapped": true,
      "distance_m": 1.5,
      "segment_id": 2354,
      "snap_point": [
        -4.321934,
        55.889345
      ],
      "edge_index": 31,
      "edge_t": 0.429448
    },
    {
      "crs": "ANN",
      "name": "Annan Rail Station",
      "lat": 54.98383526891,
      "lon": -3.26258045813,
      "snapped": true,
      "distance_m": 37,
      "segment_id": 5910,
      "snap_point": [
        -3.262785,
        54.983522
      ],
      "edge_index": 76,
      "edge_t": 0.562235
    },
    {
      "crs": "ANS",
      "name": "Ainsdale Rail Station",
      "lat": 53.60203225634,
      "lon": -3.04265200904,
      "snapped": true,
      "distance_m": 7.9,
      "segment_id": 5782,
      "snap_point": [
        -3.042546,
        53.601999
      ],
      "edge_index": 226,
      "edge_t": 0.579379
    },
    {
      "crs": "ANZ",
      "name": "Anerley Rail Station",
      "lat": 51.41215298564,
      "lon": -0.06588583993,
      "snapped": true,
      "distance_m": 0.1,
      "segment_id": 76,
      "snap_point": [
        -0.065884,
        51.412152
      ],
      "edge_index": 22,
      "edge_t": 0.98199
    },
    {
      "crs": "AON",
      "name": "Alton Rail Station",
      "lat": 51.15196879112,
      "lon": -0.96691319996,
      "snapped": true,
      "distance_m": 5.3,
      "segment_id": 5130,
      "snap_point": [
        -0.966973,
        51.151998
      ],
      "edge_index": 81,
      "edge_t": 0.848185
    },
    {
      "crs": "APB",
      "name": "Appley Bridge Rail Station",
      "lat": 53.57867074359,
      "lon": -2.71925209845,
      "snapped": true,
      "distance_m": 4.7,
      "segment_id": 5731,
      "snap_point": [
        -2.719285,
        53.578633
      ],
      "edge_index": 189,
      "edge_t": 0.647944
    },
    {
      "crs": "APD",
      "name": "Appledore (Kent) Rail Station",
      "lat": 51.03323728979,
      "lon": 0.81634166033,
      "snapped": true,
      "distance_m": 10,
      "segment_id": 1271,
      "snap_point": [
        0.816466,
        51.033194
      ],
      "edge_index": 1,
      "edge_t": 0.833842
    },
    {
      "crs": "APF",
      "name": "Appleford Rail Station",
      "lat": 51.63964121574,
      "lon": -1.24214140361,
      "snapped": true,
      "distance_m": 17.3,
      "segment_id": 5395,
      "snap_point": [
        -1.242386,
        51.639674
      ],
      "edge_index": 31,
      "edge_t": 0.852239
    },
    {
      "crs": "APG",
      "name": "Aspley Guise Rail Station",
      "lat": 52.02123684616,
      "lon": -0.63233442292,
      "snapped": true,
      "distance_m": 1.2,
      "segment_id": 3288,
      "snap_point": [
        -0.632332,
        52.021226
      ],
      "edge_index": 220,
      "edge_t": 0.418904
    },
    {
      "crs": "APN",
      "name": "Newcastle Airport Metro Station",
      "lat": 55.03594906574,
      "lon": -1.71104650989,
      "snapped": true,
      "distance_m": 4.2,
      "segment_id": 1314,
      "snap_point": [
        -1.711111,
        55.035944
      ],
      "edge_index": 1,
      "edge_t": 0.5491
    },
    {
      "crs": "APP",
      "name": "Appleby Rail Station",
      "lat": 54.58034642846,
      "lon": -2.48669223087,
      "snapped": true,
      "distance_m": 10.4,
      "segment_id": 3179,
      "snap_point": [
        -2.486581,
        54.580415
      ],
      "edge_index": 704,
      "edge_t": 0.9451
    },
    {
      "crs": "APS",
      "name": "Apsley Rail Station",
      "lat": 51.73252176017,
      "lon": -0.46293473253,
      "snapped": true,
      "distance_m": 6,
      "segment_id": 6087,
      "snap_point": [
        -0.462991,
        51.732481
      ],
      "edge_index": 123,
      "edge_t": 0.182518
    },
    {
      "crs": "APY",
      "name": "Apperley Bridge Rail Station",
      "lat": 53.84174897167,
      "lon": -1.70582848003,
      "snapped": true,
      "distance_m": 18.2,
      "segment_id": 5542,
      "snap_point": [
        -1.705751,
        53.841907
      ],
      "edge_index": 50,
      "edge_t": 0.116852
    },
    {
      "crs": "ARB",
      "name": "Arbroath Rail Station",
      "lat": 56.559573741,
      "lon": -2.58893139426,
      "snapped": true,
      "distance_m": 5.1,
      "segment_id": 3735,
      "snap_point": [
        -2.589006,
        56.559593
      ],
      "edge_index": 231,
      "edge_t": 0.461964
    },
    {
      "crs": "ARD",
      "name": "Ardgay Rail Station",
      "lat": 57.88145239367,
      "lon": -4.36208920609,
      "snapped": true,
      "distance_m": 0.9,
      "segment_id": 2504,
      "snap_point": [
        -4.362102,
        57.881448
      ],
      "edge_index": 3,
      "edge_t": 0.538125
    },
    {
      "crs": "ARG",
      "name": "Arisaig Rail Station",
      "lat": 56.9125463927,
      "lon": -5.83907767832,
      "snapped": true,
      "distance_m": 40.5,
      "segment_id": 3462,
      "snap_point": [
        -5.838998,
        56.91291
      ],
      "edge_index": 3,
      "edge_t": 0.28678
    },
    {
      "crs": "ARL",
      "name": "Arlesey Rail Station",
      "lat": 52.02603126054,
      "lon": -0.26631975935,
      "snapped": true,
      "distance_m": 0.2,
      "segment_id": 4023,
      "snap_point": [
        -0.266317,
        52.026031
      ],
      "edge_index": 193,
      "edge_t": 0.608696
    },
    {
      "crs": "ARM",
      "name": "Armadale (W Lothian) Rail Station",
      "lat": 55.88570975781,
      "lon": -3.69541259893,
      "snapped": true,
      "distance_m": 9.4,
      "segment_id": 3384,
      "snap_point": [
        -3.695329,
        55.885639
      ],
      "edge_index": 342,
      "edge_t": 0.390947
    },
    {
      "crs": "ARN",
      "name": "Arnside Rail Station",
      "lat": 54.20272857701,
      "lon": -2.82824144558,
      "snapped": true,
      "distance_m": 0.8,
      "segment_id": 5596,
      "snap_point": [
        -2.828233,
        54.202733
      ],
      "edge_index": 129,
      "edge_t": 0.793019
    },
    {
      "crs": "ARR",
      "name": "Arram Rail Station",
      "lat": 53.88434367979,
      "lon": -0.42657005177,
      "snapped": true,
      "distance_m": 1.1,
      "segment_id": 1924,
      "snap_point": [
        -0.426585,
        53.884339
      ],
      "edge_index": 253,
      "edge_t": 0.936908
    },
    {
      "crs": "ART",
      "name": "Arrochar & Tarbet Rail Station",
      "lat": 56.20397079227,
      "lon": -4.72277004057,
      "snapped": true,
      "distance_m": 46.6,
      "segment_id": 2938,
      "snap_point": [
        -4.722431,
        56.203594
      ],
      "edge_index": 4,
      "edge_t": 0.037431
    },
    {
      "crs": "ARU",
      "name": "Arundel Rail Station",
      "lat": 50.84821482762,
      "lon": -0.54617421767,
      "snapped": true,
      "distance_m": 2.4,
      "segment_id": 1420,
      "snap_point": [
        -0.546144,
        50.848205
      ],
      "edge_index": 32,
      "edge_t": 0.022493
    },
    {
      "crs": "ASB",
      "name": "Ardrossan South Beach Rail Station",
      "lat": 55.64141617387,
      "lon": -4.80121139475,
      "snapped": true,
      "distance_m": 1.2,
      "segment_id": 5928,
      "snap_point": [
        -4.801222,
        55.641407
      ],
      "edge_index": 2,
      "edge_t": 0.126617
    },
    {
      "crs": "ASC",
      "name": "Ashchurch for Tewkesbury Rail Station",
      "lat": 51.99890403964,
      "lon": -2.10875994357,
      "snapped": true,
      "distance_m": 0.2,
      "segment_id": 601,
      "snap_point": [
        -2.108757,
        51.998904
      ],
      "edge_index": 118,
      "edge_t": 0.895892
    },
    {
      "crs": "ASD",
      "name": "Ashley Down",
      "lat": 51.47875,
      "lon": -2.5767,
      "snapped": true,
      "distance_m": 3.5,
      "segment_id": 1033,
      "snap_point": [
        -2.57665,
        51.478747
      ],
      "edge_index": 17,
      "edge_t": 0.20372
    },
    {
      "crs": "ASF",
      "name": "Ashfield Rail Station",
      "lat": 55.88892180962,
      "lon": -4.24921411534,
      "snapped": true,
      "distance_m": 0.8,
      "segment_id": 2276,
      "snap_point": [
        -4.249217,
        55.888915
      ],
      "edge_index": 35,
      "edge_t": 0.074204
    },
    {
      "crs": "ASG",
      "name": "Alsager Rail Station",
      "lat": 53.09300333618,
      "lon": -2.29905753309,
      "snapped": true,
      "distance_m": 1.5,
      "segment_id": 761,
      "snap_point": [
        -2.299054,
        53.09299
      ],
      "edge_index": 59,
      "edge_t": 0.772139
    },
    {
      "crs": "ASH",
      "name": "Ash Rail Station",
      "lat": 51.24959731625,
      "lon": -0.71280538722,
      "snapped": true,
      "distance_m": 6.2,
      "segment_id": 1308,
      "snap_point": [
        -0.712757,
        51.249644
      ],
      "edge_index": 31,
      "edge_t": 0.481957
    },
    {
      "crs": "ASK",
      "name": "Askam Rail Station",
      "lat": 54.18892963805,
      "lon": -3.20451119051,
      "snapped": true,
      "distance_m": 1.2,
      "segment_id": 3021,
      "snap_point": [
        -3.20453,
        54.188928
      ],
      "edge_index": 1509,
      "edge_t": 0.466095
    },
    {
      "crs": "ASL",
      "name": "Ashington Rail Station",
      "lat": 55.18224,
      "lon": -1.57278,
      "snapped": true,
      "distance_m": 4.4,
      "segment_id": 5868,
      "snap_point": [
        -1.572715,
        55.182253
      ],
      "edge_index": 1,
      "edge_t": 0.252064
    },
    {
      "crs": "ASN",
      "name": "Addlestone Rail Station",
      "lat": 51.37304566372,
      "lon": -0.48445671716,
      "snapped": true,
      "distance_m": 1.1,
      "segment_id": 3078,
      "snap_point": [
        -0.484446,
        51.373053
      ],
      "edge_index": 159,
      "edge_t": 0.191994
    },
    {
      "crs": "ASP",
      "name": "Aspatria Rail Station",
      "lat": 54.75895619255,
      "lon": -3.33187360253,
      "snapped": true,
      "distance_m": 1.7,
      "segment_id": 3021,
      "snap_point": [
        -3.331891,
        54.758968
      ],
      "edge_index": 281,
      "edge_t": 0.898619
    },
    {
      "crs": "ASS",
      "name": "Alness Rail Station",
      "lat": 57.69439411691,
      "lon": -4.24971628511,
      "snapped": true,
      "distance_m": 2.5,
      "segment_id": 2487,
      "snap_point": [
        -4.249725,
        57.694372
      ],
      "edge_index": 133,
      "edge_t": 0.412521
    },
    {
      "crs": "AST",
      "name": "Aston Rail Station",
      "lat": 52.50423065769,
      "lon": -1.87193353804,
      "snapped": true,
      "distance_m": 2.9,
      "segment_id": 1202,
      "snap_point": [
        -1.871896,
        52.504243
      ],
      "edge_index": 4,
      "edge_t": 0.132761
    },
    {
      "crs": "ASY",
      "name": "Ashley Rail Station",
      "lat": 53.35572365976,
      "lon": -2.34146042588,
      "snapped": true,
      "distance_m": 3.7,
      "segment_id": 835,
      "snap_point": [
        -2.341405,
        53.355727
      ],
      "edge_index": 341,
      "edge_t": 0.913703
    },
    {
      "crs": "ATB",
      "name": "Attenborough Rail Station",
      "lat": 52.90621295338,
      "lon": -1.23141548016,
      "snapped": true,
      "distance_m": 0.9,
      "segment_id": 4407,
      "snap_point": [
        -1.231425,
        52.906219
      ],
      "edge_index": 84,
      "edge_t": 0.534486
    },
    {
      "crs": "ATH",
      "name": "Atherstone Rail Station",
      "lat": 52.57897120193,
      "lon": -1.55281130806,
      "snapped": true,
      "distance_m": 0.7,
      "segment_id": 2114,
      "snap_point": [
        -1.55282,
        52.578969
      ],
      "edge_index": 476,
      "edge_t": 0.325889
    },
    {
      "crs": "ATL",
      "name": "Attleborough Rail Station",
      "lat": 52.51454794364,
      "lon": 1.02234774572,
      "snapped": true,
      "distance_m": 1.8,
      "segment_id": 592,
      "snap_point": [
        1.022365,
        52.514535
      ],
      "edge_index": 78,
      "edge_t": 0.855108
    },
    {
      "crs": "ATN",
      "name": "Atherton Rail Station",
      "lat": 53.5291438805,
      "lon": -2.4789719932,
      "snapped": true,
      "distance_m": 6.7,
      "segment_id": 3914,
      "snap_point": [
        -2.478942,
        53.529202
      ],
      "edge_index": 216,
      "edge_t": 0.128436
    },
    {
      "crs": "ATT",
      "name": "Attadale Rail Station",
      "lat": 57.39503655976,
      "lon": -5.45557705188,
      "snapped": true,
      "distance_m": 0.5,
      "segment_id": 2848,
      "snap_point": [
        -5.455586,
        57.395036
      ],
      "edge_index": 557,
      "edge_t": 0.308622
    },
    {
      "crs": "AUD",
      "name": "Audley End Rail Station",
      "lat": 52.00443983957,
      "lon": 0.20730569075,
      "snapped": true,
      "distance_m": 8.3,
      "segment_id": 4091,
      "snap_point": [
        0.207187,
        52.004427
      ],
      "edge_index": 393,
      "edge_t": 0.144796
    },
    {
      "crs": "AUG",
      "name": "Aughton Park Rail Station",
      "lat": 53.55424741626,
      "lon": -2.89522081448,
      "snapped": true,
      "distance_m": 1.5,
      "segment_id": 5779,
      "snap_point": [
        -2.895241,
        53.554254
      ],
      "edge_index": 114,
      "edge_t": 0.025503
    },
    {
      "crs": "AUI",
      "name": "Ardlui Rail Station",
      "lat": 56.30196654417,
      "lon": -4.72165737568,
      "snapped": true,
      "distance_m": 4.7,
      "segment_id": 2929,
      "snap_point": [
        -4.721588,
        56.301983
      ],
      "edge_index": 2,
      "edge_t": 0.653426
    },
    {
      "crs": "AUK",
      "name": "Auchinleck Rail Station",
      "lat": 55.47027326493,
      "lon": -4.29534918715,
      "snapped": true,
      "distance_m": 48.2,
      "segment_id": 5910,
      "snap_point": [
        -4.295457,
        55.469842
      ],
      "edge_index": 887,
      "edge_t": 0.768963
    },
    {
      "crs": "AUR",
      "name": "Aberdour Rail Station",
      "lat": 56.05459191149,
      "lon": -3.30056001734,
      "snapped": true,
      "distance_m": 26,
      "segment_id": 3994,
      "snap_point": [
        -3.300758,
        56.054799
      ],
      "edge_index": 358,
      "edge_t": 0.98618
    },
    {
      "crs": "AUW",
      "name": "Ascott-under-Wychwood Rail Station",
      "lat": 51.86734078069,
      "lon": -1.56405264014,
      "snapped": true,
      "distance_m": 8.5,
      "segment_id": 1468,
      "snap_point": [
        -1.564113,
        51.867408
      ],
      "edge_index": 99,
      "edge_t": 0.209073
    },
    {
      "crs": "AVF",
      "name": "Avoncliff Rail Station",
      "lat": 51.3396508457,
      "lon": -2.28132527867,
      "snapped": true,
      "distance_m": 0.9,
      "segment_id": 1004,
      "snap_point": [
        -2.28133,
        51.339658
      ],
      "edge_index": 341,
      "edge_t": 0.086646
    },
    {
      "crs": "AVM",
      "name": "Aviemore Rail Station",
      "lat": 57.18851180144,
      "lon": -3.82886717842,
      "snapped": true,
      "distance_m": 1.3,
      "segment_id": 4186,
      "snap_point": [
        -3.828889,
        57.188512
      ],
      "edge_index": 13,
      "edge_t": 0.50397
    },
    {
      "crs": "AVN",
      "name": "Avonmouth Rail Station",
      "lat": 51.50036215509,
      "lon": -2.69946610827,
      "snapped": true,
      "distance_m": 0.7,
      "segment_id": 1024,
      "snap_point": [
        -2.699458,
        51.500365
      ],
      "edge_index": 3,
      "edge_t": 0.472876
    },
    {
      "crs": "AVP",
      "name": "Aylesbury Vale Parkway Rail Station",
      "lat": 51.83115901817,
      "lon": -0.86018234228,
      "snapped": true,
      "distance_m": 19.2,
      "segment_id": 5797,
      "snap_point": [
        -0.859903,
        51.83116
      ],
      "edge_index": 0,
      "edge_t": 0
    },
    {
      "crs": "AVY",
      "name": "Aberdovey Rail Station",
      "lat": 52.54395659957,
      "lon": -4.05706706793,
      "snapped": true,
      "distance_m": 49.7,
      "segment_id": 2671,
      "snap_point": [
        -4.056942,
        52.544399
      ],
      "edge_index": 300,
      "edge_t": 0.605652
    },
    {
      "crs": "AWK",
      "name": "Adwick Rail Station",
      "lat": 53.57232071859,
      "lon": -1.18035620719,
      "snapped": true,
      "distance_m": 1.6,
      "segment_id": 1918,
      "snap_point": [
        -1.180337,
        53.572329
      ],
      "edge_index": 103,
      "edge_t": 0.24654
    },
    {
      "crs": "AWM",
      "name": "Ashwell & Morden Rail Station",
      "lat": 52.03077214672,
      "lon": -0.10978883668,
      "snapped": true,
      "distance_m": 9.1,
      "segment_id": 4069,
      "snap_point": [
        -0.10973,
        52.030698
      ],
      "edge_index": 166,
      "edge_t": 0.037965
    },
    {
      "crs": "AWT",
      "name": "Armathwaite Rail Station",
      "lat": 54.80946514572,
      "lon": -2.77207104301,
      "snapped": true,
      "distance_m": 1,
      "segment_id": 3179,
      "snap_point": [
        -2.772085,
        54.80947
      ],
      "edge_index": 240,
      "edge_t": 0.064238
    },
    {
      "crs": "AXM",
      "name": "Axminster Rail Station",
      "lat": 50.77927120095,
      "lon": -3.00472309727,
      "snapped": true,
      "distance_m": 1.1,
      "segment_id": 5161,
      "snap_point": [
        -3.004709,
        50.779267
      ],
      "edge_index": 30,
      "edge_t": 0.520462
    },
    {
      "crs": "AXP",
      "name": "Alexandra Parade Rail Station",
      "lat": 55.86317091519,
      "lon": -4.21064800754,
      "snapped": true,
      "distance_m": 2.2,
      "segment_id": 5794,
      "snap_point": [
        -4.210612,
        55.863172
      ],
      "edge_index": 62,
      "edge_t": 0.818195
    },
    {
      "crs": "AYH",
      "name": "Aylesham Rail Station",
      "lat": 51.22725429648,
      "lon": 1.2094529054,
      "snapped": true,
      "distance_m": 11.8,
      "segment_id": 4733,
      "snap_point": [
        1.209618,
        51.227279
      ],
      "edge_index": 206,
      "edge_t": 0.204919
    },
    {
      "crs": "AYL",
      "name": "Aylesford Rail Station",
      "lat": 51.301317844,
      "lon": 0.46617068355,
      "snapped": true,
      "distance_m": 11.2,
      "segment_id": 5508,
      "snap_point": [
        0.466218,
        51.301415
      ],
      "edge_index": 304,
      "edge_t": 0.811227
    },
    {
      "crs": "AYP",
      "name": "Albany Park Rail Station",
      "lat": 51.43545265496,
      "lon": 0.12573715609,
      "snapped": true,
      "distance_m": 8.2,
      "segment_id": 2640,
      "snap_point": [
        0.125753,
        51.435379
      ],
      "edge_index": 207,
      "edge_t": 0.380647
    },
    {
      "crs": "AYR",
      "name": "Ayr Rail Station",
      "lat": 55.45814202618,
      "lon": -4.62587561471,
      "snapped": true,
      "distance_m": 5.5,
      "segment_id": 3169,
      "snap_point": [
        -4.625795,
        55.458122
      ],
      "edge_index": 6,
      "edge_t": 0.257099
    },
    {
      "crs": "AYS",
      "name": "Aylesbury Rail Station",
      "lat": 51.81389057916,
      "lon": -0.81509590543,
      "snapped": true,
      "distance_m": 10.9,
      "segment_id": 4834,
      "snap_point": [
        -0.815172,
        51.813804
      ],
      "edge_index": 355,
      "edge_t": 0.70583
    },
    {
      "crs": "AYW",
      "name": "Aberystwyth Rail Station",
      "lat": 52.41404494843,
      "lon": -4.08189352291,
      "snapped": true,
      "distance_m": 38,
      "segment_id": 2645,
      "snap_point": [
        -4.081466,
        52.413823
      ],
      "edge_index": 0,
      "edge_t": 0
    },
    {
      "crs": "BAA",
      "name": "Barnham Rail Station",
      "lat": 50.83090652593,
      "lon": -0.63967987064,
      "snapped": true,
      "distance_m": 8.7,
      "segment_id": 1366,
      "snap_point": [
        -0.63968,
        50.830828
      ],
      "edge_index": 36,
      "edge_t": 0.13925
    },
    {
      "crs": "BAB",
      "name": "Balcombe Rail Station",
      "lat": 51.0555216567,
      "lon": -0.13693367765,
      "snapped": true,
      "distance_m": 2.2,
      "segment_id": 107,
      "snap_point": [
        -0.136963,
        51.055516
      ],
      "edge_index": 45,
      "edge_t": 0.94233
    },
    {
      "crs": "BAC",
      "name": "Bache Rail Station",
      "lat": 53.20878566244,
      "lon": -2.89167004578,
      "snapped": true,
      "distance_m": 0.9,
      "segment_id": 2086,
      "snap_point": [
        -2.891658,
        53.208788
      ],
      "edge_index": 36,
      "edge_t": 0.544962
    },
    {
      "crs": "BAD",
      "name": "Banstead Rail Station",
      "lat": 51.32934884567,
      "lon": -0.21315885243,
      "snapped": true,
      "distance_m": 1.7,
      "segment_id": 5622,
      "snap_point": [
        -0.213154,
        51.329364
      ],
      "edge_index": 25,
      "edge_t": 0.080056
    },
    {
      "crs": "BAG",
      "name": "Bagshot Rail Station",
      "lat": 51.36436751968,
      "lon": -0.68866191091,
      "snapped": true,
      "distance_m": 9.9,
      "segment_id": 5111,
      "snap_point": [
        -0.688524,
        51.364346
      ],
      "edge_index": 189,
      "edge_t": 0.022338
    },
    {
      "crs": "BAH",
      "name": "Bank Hall Rail Station",
      "lat": 53.43749336469,
      "lon": -2.98751140146,
      "snapped": true,
      "distance_m": 3.1,
      "segment_id": 5782,
      "snap_point": [
        -2.987472,
        53.437508
      ],
      "edge_index": 22,
      "edge_t": 0.17282
    },
    {
      "crs": "BAI",
      "name": "Blairhill Rail Station",
      "lat": 55.86645081485,
      "lon": -4.04329031236,
      "snapped": true,
      "distance_m": 0.3,
      "segment_id": 3387,
      "snap_point": [
        -4.043289,
        55.866448
      ],
      "edge_index": 186,
      "edge_t": 0.647003
    },
    {
      "crs": "BAJ",
      "name": "Baglan Rail Station",
      "lat": 51.6155407515,
      "lon": -3.81113575452,
      "snapped": true,
      "distance_m": 26.4,
      "segment_id": 3227,
      "snap_point": [
        -3.810817,
        51.615672
      ],
      "edge_index": 360,
      "edge_t": 0.042806
    },
    {
      "crs": "BAK",
      "name": "Battersea Park Rail Station",
      "lat": 51.47695975247,
      "lon": -0.14753343958,
      "snapped": true,
      "distance_m": 0.7,
      "segment_id": 4947,
      "snap_point": [
        -0.147523,
        51.47696
      ],
      "edge_index": 45,
      "edge_t": 0.649879
    },
    {
      "crs": "BAL",
      "name": "Balham Rail Station",
      "lat": 51.44322487289,
      "lon": -0.15242441575,
      "snapped": true,
      "distance_m": 12.2,
      "segment_id": 4943,
      "snap_point": [
        -0.152458,
        51.443117
      ],
      "edge_index": 11,
      "edge_t": 0.3812
    },
    {
      "crs": "BAM",
      "name": "Bamford Rail Station",
      "lat": 53.33899974575,
      "lon": -1.68908172623,
      "snapped": true,
      "distance_m": 0.1,
      "segment_id": 1609,
      "snap_point": [
        -1.689083,
        53.338999
      ],
      "edge_index": 172,
      "edge_t": 0.027344
    },
    {
      "crs": "BAN",
      "name": "Banbury Rail Station",
      "lat": 52.06030818238,
      "lon": -1.32813275692,
      "snapped": true,
      "distance_m": 35.2,
      "segment_id": 957,
      "snap_point": [
        -1.327689,
        52.060468
      ],
      "edge_index": 114,
      "edge_t": 0.477153
    },
    {
      "crs": "BAR",
      "name": "Bare Lane Rail Station",
      "lat": 54.07454140233,
      "lon": -2.83533041899,
      "snapped": true,
      "distance_m": 2.1,
      "segment_id": 3030,
      "snap_point": [
        -2.835342,
        54.074559
      ],
      "edge_index": 32,
      "edge_t": 0.070324
    },
    {
      "crs": "BAS",
      "name": "Bere Alston Rail Station",
      "lat": 50.48559363649,
      "lon": -4.20035447755,
      "snapped": true,
      "distance_m": 1.9,
      "segment_id": 1955,
      "snap_point": [
        -4.200362,
        50.48561
      ],
      "edge_index": 3,
      "edge_t": 0.344245
    },
    {
      "crs": "BAT",
      "name": "Battle Rail Station",
      "lat": 50.91291557408,
      "lon": 0.49470289462,
      "snapped": true,
      "distance_m": 13.2,
      "segment_id": 1290,
      "snap_point": [
        0.494864,
        50.912854
      ],
      "edge_index": 138,
      "edge_t": 0.483318
    },
    {
      "crs": "BAU",
      "name": "Barton-on-Humber Rail Station",
      "lat": 53.68891863124,
      "lon": -0.44343665567,
      "snapped": true,
      "distance_m": 1.1,
      "segment_id": 3511,
      "snap_point": [
        -0.443441,
        53.688928
      ],
      "edge_index": 1,
      "edge_t": 0.137366
    },
    {
      "crs": "BAV",
      "name": "Barrow Haven Rail Station",
      "lat": 53.69742091892,
      "lon": -0.39295515945,
      "snapped": true,
      "distance_m": 5.2,
      "segment_id": 3511,
      "snap_point": [
        -0.392977,
        53.697466
      ],
      "edge_index": 15,
      "edge_t": 0.466518
    },
    {
      "crs": "BAW",
      "name": "Blackwater Rail Station",
      "lat": 51.3315815812,
      "lon": -0.77674093582,
      "snapped": true,
      "distance_m": 1.5,
      "segment_id": 3082,
      "snap_point": [
        -0.776758,
        51.331573
      ],
      "edge_index": 59,
      "edge_t": 0.988803
    },
    {
      "crs": "BAY",
      "name": "Bayford Rail Station",
      "lat": 51.75771642993,
      "lon": -0.09560993933,
      "snapped": true,
      "distance_m": 9.5,
      "segment_id": 3774,
      "snap_point": [
        -0.095747,
        51.757729
      ],
      "edge_index": 174,
      "edge_t": 0.51747
    },
    {
      "crs": "BBG",
      "name": "Bishopbriggs Rail Station",
      "lat": 55.90387809362,
      "lon": -4.22491474935,
      "snapped": true,
      "distance_m": 4.3,
      "segment_id": 3472,
      "snap_point": [
        -4.224876,
        55.903846
      ],
      "edge_index": 43,
      "edge_t": 0.669988
    },
    {
      "crs": "BBK",
      "name": "Bilbrook Rail Station",
      "lat": 52.62371783641,
      "lon": -2.18608773615,
      "snapped": true,
      "distance_m": 8.7,
      "segment_id": 792,
      "snap_point": [
        -2.186143,
        52.623646
      ],
      "edge_index": 71,
      "edge_t": 0.364414
    },
    {
      "crs": "BBL",
      "name": "Bat & Ball Rail Station",
      "lat": 51.2897607812,
      "lon": 0.19422757424,
      "snapped": true,
      "distance_m": 22.2,
      "segment_id": 4624,
      "snap_point": [
        0.193962,
        51.289872
      ],
      "edge_index": 52,
      "edge_t": 0.366895
    },
    {
      "crs": "BBN",
      "name": "Blackburn Rail Station",
      "lat": 53.74651607633,
      "lon": -2.47912205167,
      "snapped": true,
      "distance_m": 0.9,
      "segment_id": 4127,
      "snap_point": [
        -2.479112,
        53.74651
      ],
      "edge_index": 6,
      "edge_t": 0.510326
    },
    {
      "crs": "BBS",
      "name": "Bordesley Rail Station",
      "lat": 52.47187299411,
      "lon": -1.87776863413,
      "snapped": true,
      "distance_m": 25.3,
      "segment_id": 950,
      "snap_point": [
        -1.877483,
        52.47202
      ],
      "edge_index": 17,
      "edge_t": 0.351337
    },
    {
      "crs": "BBW",
      "name": "Berry Brow Rail Station",
      "lat": 53.62104070101,
      "lon": -1.7934320772,
      "snapped": true,
      "distance_m": 5,
      "segment_id": 1832,
      "snap_point": [
        -1.793484,
        53.621008
      ],
      "edge_index": 80,
      "edge_t": 0.679467
    },
    {
      "crs": "BCB",
      "name": "Burscough Bridge Rail Station",
      "lat": 53.60525655804,
      "lon": -2.84087983477,
      "snapped": true,
      "distance_m": 1.5,
      "segment_id": 5745,
      "snap_point": [
        -2.840887,
        53.605244
      ],
      "edge_index": 196,
      "edge_t": 0.726767
    },
    {
      "crs": "BCC",
      "name": "Beccles Rail Station",
      "lat": 52.45852250008,
      "lon": 1.56949356787,
      "snapped": true,
      "distance_m": 15.8,
      "segment_id": 5729,
      "snap_point": [
        1.569719,
        52.45856
      ],
      "edge_index": 13,
      "edge_t": 0.436757
    },
    {
      "crs": "BCE",
      "name": "Bracknell Rail Station",
      "lat": 51.41309188829,
      "lon": -0.75170356103,
      "snapped": true,
      "distance_m": 11.8,
      "segment_id": 5164,
      "snap_point": [
        -0.751723,
        51.412986
      ],
      "edge_index": 217,
      "edge_t": 0.986899
    },
    {
      "crs": "BCF",
      "name": "Beaconsfield Rail Station",
      "lat": 51.61129123735,
      "lon": -0.64382219785,
      "snapped": true,
      "distance_m": 0.6,
      "segment_id": 919,
      "snap_point": [
        -0.643822,
        51.611297
      ],
      "edge_index": 203,
      "edge_t": 0.672182
    },
    {
      "crs": "BCG",
      "name": "Birchgrove Rail Station",
      "lat": 51.52155619109,
      "lon": -3.20185323367,
      "snapped": true,
      "distance_m": 2,
      "segment_id": 6005,
      "snap_point": [
        -3.201852,
        51.521538
      ],
      "edge_index": 43,
      "edge_t": 0.860357
    },
    {
      "crs": "BCH",
      "name": "Birchington-on-Sea Rail Station",
      "lat": 51.37749259491,
      "lon": 1.30140859632,
      "snapped": true,
      "distance_m": 2.3,
      "segment_id": 5528,
      "snap_point": [
        1.301406,
        51.377514
      ],
      "edge_index": 232,
      "edge_t": 0.088625
    },
    {
      "crs": "BCJ",
      "name": "Burscough Junction Rail Station",
      "lat": 53.59751935732,
      "lon": -2.8406052465,
      "snapped": true,
      "distance_m": 2.9,
      "segment_id": 4727,
      "snap_point": [
        -2.840568,
        53.597505
      ],
      "edge_index": 26,
      "edge_t": 0.487774
    },
    {
      "crs": "BCK",
      "name": "Buckley Rail Station",
      "lat": 53.16303579963,
      "lon": -3.05592567548,
      "snapped": true,
      "distance_m": 49.2,
      "segment_id": 2966,
      "snap_point": [
        -3.055188,
        53.163021
      ],
      "edge_index": 440,
      "edge_t": 0.048017
    },
    {
      "crs": "BCN",
      "name": "Branchton Rail Station",
      "lat": 55.94059564078,
      "lon": -4.8035481115,
      "snapped": true,
      "distance_m": 9.5,
      "segment_id": 2235,
      "snap_point": [
        -4.803505,
        55.940514
      ],
      "edge_index": 162,
      "edge_t": 0.848365
    },
    {
      "crs": "BCS",
      "name": "Bicester North Rail Station",
      "lat": 51.90348276254,
      "lon": -1.15038340304,
      "snapped": true,
      "distance_m": 13,
      "segment_id": 956,
      "snap_point": [
        -1.150288,
        51.903585
      ],
      "edge_index": 90,
      "edge_t": 0.587457
    },
    {
      "crs": "BCU",
      "name": "Brockenhurst Rail Station",
      "lat": 50.81684095229,
      "lon": -1.57353100271,
      "snapped": true,
      "distance_m": 11.7,
      "segment_id": 1182,
      "snap_point": [
        -1.573407,
        50.81677
      ],
      "edge_index": 251,
      "edge_t": 0.965809
    },
    {
      "crs": "BCV",
      "name": "Bruce Grove Rail Station",
      "lat": 51.59395912272,
      "lon": -0.06986698816,
      "snapped": true,
      "distance_m": 1.4,
      "segment_id": 5195,
      "snap_point": [
        -0.069887,
        51.593962
      ],
      "edge_index": 166,
      "edge_t": 0.645902
    },
    {
      "crs": "BCY",
      "name": "Brockley Rail Station",
      "lat": 51.46464884615,
      "lon": -0.03753660945,
      "snapped": true,
      "distance_m": 0.6,
      "segment_id": 76,
      "snap_point": [
        -0.037528,
        51.464648
      ],
      "edge_index": 126,
      "edge_t": 0.682141
    },
    {
      "crs": "BCZ",
      "name": "Brent Cross West Station",
      "lat": 51.568429,
      "lon": -0.22548819,
      "snapped": true,
      "distance_m": 6.1,
      "segment_id": 4484,
      "snap_point": [
        -0.225558,
        51.568396
      ],
      "edge_index": 68,
      "edge_t": 0.921988
    },
    {
      "crs": "BDA",
      "name": "Brundall Rail Station",
      "lat": 52.61948351405,
      "lon": 1.43929896138,
      "snapped": false,
      "distance_m": 5604.8,
      "segment_id": 442,
      "snap_point": [
        1.379578,
        52.654654
      ],
      "edge_index": 80,
      "edge_t": 1
    },
    {
      "crs": "BDB",
      "name": "Broadbottom Rail Station",
      "lat": 53.44097376628,
      "lon": -2.01652076989,
      "snapped": true,
      "distance_m": 18.6,
      "segment_id": 2976,
      "snap_point": [
        -2.016517,
        53.440806
      ],
      "edge_index": 109,
      "edge_t": 0.451731
    },
    {
      "crs": "BDG",
      "name": "Bridgeton Rail Station",
      "lat": 55.8489625955,
      "lon": -4.22605627862,
      "snapped": true,
      "distance_m": 0.7,
      "segment_id": 2351,
      "snap_point": [
        -4.22605,
        55.848968
      ],
      "edge_index": 138,
      "edge_t": 0.893425
    },
    {
      "crs": "BDH",
      "name": "Bedhampton Rail Station",
      "lat": 50.85395672389,
      "lon": -0.99582833048,
      "snapped": true,
      "distance_m": 13.7,
      "segment_id": 1384,
      "snap_point": [
        -0.995909,
        50.85407
      ],
      "edge_index": 21,
      "edge_t": 0.707508
    },
    {
      "crs": "BDI",
      "name": "Bradford Interchange Rail Station",
      "lat": 53.7910752487,
      "lon": -1.74959570123,
      "snapped": true,
      "distance_m": 9.7,
      "segment_id": 4134,
      "snap_point": [
        -1.749448,
        53.791079
      ],
      "edge_index": 0,
      "edge_t": 0.379546
    },
    {
      "crs": "BDK",
      "name": "Baldock Rail Station",
      "lat": 51.99287120941,
      "lon": -0.18756367372,
      "snapped": true,
      "distance_m": 9,
      "segment_id": 4066,
      "snap_point": [
        -0.187589,
        51.992951
      ],
      "edge_index": 301,
      "edge_t": 0.967268
    },
    {
      "crs": "BDL",
      "name": "Birkdale Rail Station",
      "lat": 53.63404958229,
      "lon": -3.01444960865,
      "snapped": true,
      "distance_m": 0.5,
      "segment_id": 5781,
      "snap_point": [
        -3.014443,
        53.634047
      ],
      "edge_index": 251,
      "edge_t": 0.525619
    },
    {
      "crs": "BDM",
      "name": "Bedford Rail Station",
      "lat": 52.13618736103,
      "lon": -0.47944229968,
      "snapped": true,
      "distance_m": 13.8,
      "segment_id": 4399,
      "snap_point": [
        -0.479623,
        52.136131
      ],
      "edge_index": 10,
      "edge_t": 0.355738
    },
    {
      "crs": "BDN",
      "name": "Brading Rail Station",
      "lat": 50.67837192899,
      "lon": -1.13872233248,
      "snapped": true,
      "distance_m": 9.9,
      "segment_id": 1042,
      "snap_point": [
        -1.138606,
        50.678322
      ],
      "edge_index": 6,
      "edge_t": 0.836613
    },
    {
      "crs": "BDQ",
      "name": "Bradford Forster Square Rail Station",
      "lat": 53.79692441269,
      "lon": -1.7529615389,
      "snapped": true,
      "distance_m": 59.1,
      "segment_id": 5808,
      "snap_point": [
        -1.753261,
        53.797428
      ],
      "edge_index": 0,
      "edge_t": 0
    },
    {
      "crs": "BDS",
      "name": "Bond Street",
      "lat": null,
      "lon": null,
      "snapped": null,
      "distance_m": null,
      "segment_id": null,
      "snap_point": null,
      "edge_index": null,
      "edge_t": null
    },
    {
      "crs": "BDT",
      "name": "Bridlington Rail Station",
      "lat": 54.08413126708,
      "lon": -0.1987203099,
      "snapped": true,
      "distance_m": 38.2,
      "segment_id": 1924,
      "snap_point": [
        -0.198978,
        54.084442
      ],
      "edge_index": 569,
      "edge_t": 0.375293
    },
    {
      "crs": "BDW",
      "name": "Bedwyn Rail Station",
      "lat": 51.37964003023,
      "lon": -1.59878609614,
      "snapped": true,
      "distance_m": 1.5,
      "segment_id": 5347,
      "snap_point": [
        -1.598805,
        51.379646
      ],
      "edge_index": 562,
      "edge_t": 0.832237
    },
    {
      "crs": "BDY",
      "name": "Bredbury Rail Station",
      "lat": 53.42315332003,
      "lon": -2.11048803686,
      "snapped": true,
      "distance_m": 9.4,
      "segment_id": 1567,
      "snap_point": [
        -2.110563,
        53.423081
      ],
      "edge_index": 199,
      "edge_t": 0.122776
    },
    {
      "crs": "BEA",
      "name": "Bridge of Allan Rail Station",
      "lat": 56.15663513682,
      "lon": -3.95722851142,
      "snapped": true,
      "distance_m": 2.5,
      "segment_id": 4226,
      "snap_point": [
        -3.957269,
        56.156635
      ],
      "edge_index": 399,
      "edge_t": 0.227783
    },
    {
      "crs": "BEB",
      "name": "Bebington Rail Station",
      "lat": 53.35765385894,
      "lon": -3.00363467306,
      "snapped": true,
      "distance_m": 35.6,
      "segment_id": 2091,
      "snap_point": [
        -3.003123,
        53.357748
      ],
      "edge_index": 81,
      "edge_t": 0.89215
    },
    {
      "crs": "BEC",
      "name": "Beckenham Hill Rail Station",
      "lat": 51.42458254863,
      "lon": -0.01595103016,
      "snapped": true,
      "distance_m": 0.1,
      "segment_id": 4648,
      "snap_point": [
        -0.01595,
        51.424583
      ],
      "edge_index": 61,
      "edge_t": 0.194839
    },
    {
      "crs": "BEE",
      "name": "Beeston Rail Station",
      "lat": 52.9207548099,
      "lon": -1.20765788907,
      "snapped": true,
      "distance_m": 2.4,
      "segment_id": 4364,
      "snap_point": [
        -1.207633,
        52.92074
      ],
      "edge_index": 6,
      "edge_t": 0.141735
    },
    {
      "crs": "BEF",
      "name": "Benfleet Rail Station",
      "lat": 51.54394506572,
      "lon": 0.56171347084,
      "snapped": true,
      "distance_m": 9.1,
      "segment_id": 5565,
      "snap_point": [
        0.56179,
        51.544012
      ],
      "edge_index": 135,
      "edge_t": 0.273726
    },
    {
      "crs": "BEG",
      "name": "Beltring Rail Station",
      "lat": 51.20470872283,
      "lon": 0.40349559627,
      "snapped": true,
      "distance_m": 2.1,
      "segment_id": 5507,
      "snap_point": [
        0.403466,
        51.204712
      ],
      "edge_index": 22,
      "edge_t": 0.402198
    },
    {
      "crs": "BEH",
      "name": "Bedworth Rail Station",
      "lat": 52.47929669984,
      "lon": -1.46739207733,
      "snapped": true,
      "distance_m": 4.7,
      "segment_id": 1930,
      "snap_point": [
        -1.467461,
        52.479292
      ],
      "edge_index": 193,
      "edge_t": 0.744111
    },
    {
      "crs": "BEJ",
      "name": "Bedlington Rail Station",
      "lat": 55.14051,
      "lon": -1.56867,
      "snapped": true,
      "distance_m": 12.6,
      "segment_id": 5859,
      "snap_point": [
        -1.568812,
        55.14043
      ],
      "edge_index": 112,
      "edge_t": 0.023067
    },
    {
      "crs": "BEL",
      "name": "Beauly Rail Station",
      "lat": 57.47828254385,
      "lon": -4.46986577748,
      "snapped": true,
      "distance_m": 0.1,
      "segment_id": 2489,
      "snap_point": [
        -4.469865,
        57.478283
      ],
      "edge_index": 45,
      "edge_t": 0.989503
    },
    {
      "crs": "BEM",
      "name": "Bempton Rail Station",
      "lat": 54.12765935378,
      "lon": -0.18045676255,
      "snapped": true,
      "distance_m": 2.2,
      "segment_id": 1924,
      "snap_point": [
        -0.180437,
        54.127675
      ],
      "edge_index": 632,
      "edge_t": 0.469663
    },
    {
      "crs": "BEN",
      "name": "Bentham Rail Station",
      "lat": 54.11551727945,
      "lon": -2.51067615135,
      "snapped": true,
      "distance_m": 3.5,
      "segment_id": 5534,
      "snap_point": [
        -2.510689,
        54.115486
      ],
      "edge_index": 303,
      "edge_t": 0.1712
    },
    {
      "crs": "BEP",
      "name": "Bermuda Park Rail Station",
      "lat": 52.50143363291,
      "lon": -1.47217759826,
      "snapped": true,
      "distance_m": 1.4,
      "segment_id": 1930,
      "snap_point": [
        -1.472157,
        52.501435
      ],
      "edge_index": 215,
      "edge_t": 0.781709
    },
    {
      "crs": "BER",
      "name": "Bearley Rail Station",
      "lat": 52.24441041943,
      "lon": -1.75025528142,
      "snapped": true,
      "distance_m": 9.7,
      "segment_id": 5969,
      "snap_point": [
        -1.75037,
        52.244463
      ],
      "edge_index": 26,
      "edge_t": 0.785698
    },
    {
      "crs": "BES",
      "name": "Bescar Lane Rail Station",
      "lat": 53.6238522682,
      "lon": -2.91461053035,
      "snapped": true,
      "distance_m": 0.2,
      "segment_id": 5745,
      "snap_point": [
        -2.914612,
        53.62385
      ],
      "edge_index": 230,
      "edge_t": 0.986672
    },
    {
      "crs": "BET",
      "name": "Bethnal Green Rail Station",
      "lat": 51.52391726889,
      "lon": -0.05956796403,
      "snapped": true,
      "distance_m": 1.2,
      "segment_id": 5237,
      "snap_point": [
        -0.05957,
        51.523928
      ],
      "edge_index": 54,
      "edge_t": 0.407693
    },
    {
      "crs": "BEU",
      "name": "Beaulieu Road Rail Station",
      "lat": 50.8550485949,
      "lon": -1.50474946667,
      "snapped": true,
      "distance_m": 15.3,
      "segment_id": 1163,
      "snap_point": [
        -1.504964,
        50.855024
      ],
      "edge_index": 157,
      "edge_t": 0.234251
    },
    {
      "crs": "BEV",
      "name": "Beverley Rail Station",
      "lat": 53.84227350937,
      "lon": -0.42298004647,
      "snapped": true,
      "distance_m": 2.2,
      "segment_id": 1924,
      "snap_point": [
        -0.422947,
        53.842275
      ],
      "edge_index": 177,
      "edge_t": 0.08225
    },
    {
      "crs": "BEX",
      "name": "Bexhill Rail Station",
      "lat": 50.84104242608,
      "lon": 0.47701670807,
      "snapped": true,
      "distance_m": 1.3,
      "segment_id": 1259,
      "snap_point": [
        0.477015,
        50.841054
      ],
      "edge_index": 104,
      "edge_t": 0.296987
    },
    {
      "crs": "BEY",
      "name": "Ben Rhydding Rail Station",
      "lat": 53.92571405189,
      "lon": -1.79743005659,
      "snapped": false,
      "distance_m": 7945.1,
      "segment_id": 5530,
      "snap_point": [
        -1.850251,
        53.861043
      ],
      "edge_index": 983,
      "edge_t": 1
    },
    {
      "crs": "BFD",
      "name": "Brentford Rail Station",
      "lat": 51.48754690635,
      "lon": -0.30965091793,
      "snapped": true,
      "distance_m": 9.3,
      "segment_id": 5184,
      "snap_point": [
        -0.309714,
        51.487621
      ],
      "edge_index": 87,
      "edge_t": 0.131125
    },
    {
      "crs": "BFE",
      "name": "Bere Ferrers Rail Station",
      "lat": 50.45127694363,
      "lon": -4.18143422984,
      "snapped": true,
      "distance_m": 3.4,
      "segment_id": 1954,
      "snap_point": [
        -4.181481,
        50.451273
      ],
      "edge_index": 87,
      "edge_t": 0.987449
    },
    {
      "crs": "BFF",
      "name": "Blaenau Ffestiniog Rail Station",
      "lat": 52.99454837072,
      "lon": -3.9385949296,
      "snapped": true,
      "distance_m": 2.3,
      "segment_id": 539,
      "snap_point": [
        -3.938594,
        52.994569
      ],
      "edge_index": 10,
      "edge_t": 0.478186
    },
    {
      "crs": "BFN",
      "name": "Byfleet & New Haw Rail Station",
      "lat": 51.34979664729,
      "lon": -0.48138968791,
      "snapped": true,
      "distance_m": 10.9,
      "segment_id": 5099,
      "snap_point": [
        -0.481293,
        51.349719
      ],
      "edge_index": 142,
      "edge_t": 0.143098
    },
    {
      "crs": "BFR",
      "name": "London Blackfriars Rail Station",
      "lat": 51.5118097294,
      "lon": -0.10333199189,
      "snapped": true,
      "distance_m": 0.8,
      "segment_id": 4472,
      "snap_point": [
        -0.103343,
        51.511809
      ],
      "edge_index": 138,
      "edge_t": 0.928726
    },
    {
      "crs": "BGA",
      "name": "Brundall Gardens Rail Station",
      "lat": 52.62344330976,
      "lon": 1.41841639227,
      "snapped": false,
      "distance_m": 4335.7,
      "segment_id": 442,
      "snap_point": [
        1.379578,
        52.654654
      ],
      "edge_index": 80,
      "edge_t": 1
    },
    {
      "crs": "BGD",
      "name": "Bargoed Rail Station",
      "lat": 51.69230918463,
      "lon": -3.22967955711,
      "snapped": true,
      "distance_m": 16.7,
      "segment_id": 2049,
      "snap_point": [
        -3.229478,
        51.692392
      ],
      "edge_index": 2,
      "edge_t": 0.504563
    },
    {
      "crs": "BGE",
      "name": "Broad Green Rail Station",
      "lat": 53.40650328883,
      "lon": -2.89348391276,
      "snapped": true,
      "distance_m": 1.6,
      "segment_id": 2215,
      "snap_point": [
        -2.893488,
        53.406517
      ],
      "edge_index": 18,
      "edge_t": 0.255742
    },
    {
      "crs": "BGG",
      "name": "Brigg Rail Station",
      "lat": 53.54914509776,
      "lon": -0.48612467657,
      "snapped": true,
      "distance_m": 13.7,
      "segment_id": 3545,
      "snap_point": [
        -0.486062,
        53.549027
      ],
      "edge_index": 51,
      "edge_t": 0.371899
    },
    {
      "crs": "BGH",
      "name": "Brighouse Rail Station",
      "lat": 53.69819729483,
      "lon": -1.77943883658,
      "snapped": true,
      "distance_m": 0.4,
      "segment_id": 2984,
      "snap_point": [
        -1.779437,
        53.698201
      ],
      "edge_index": 71,
      "edge_t": 0.343001
    },
    {
      "crs": "BGI",
      "name": "Bargeddie Rail Station",
      "lat": 55.8512912908,
      "lon": -4.07380735225,
      "snapped": true,
      "distance_m": 1.3,
      "segment_id": 2452,
      "snap_point": [
        -4.073816,
        55.851302
      ],
      "edge_index": 102,
      "edge_t": 0.959714
    },
    {
      "crs": "BGL",
      "name": "Bugle Rail Station",
      "lat": 50.40034870413,
      "lon": -4.79210020003,
      "snapped": true,
      "distance_m": 2.7,
      "segment_id": 3492,
      "snap_point": [
        -4.792119,
        50.400327
      ],
      "edge_index": 444,
      "edge_t": 0.45982
    },
    {
      "crs": "BGM",
      "name": "Bellingham Rail Station",
      "lat": 51.43291305851,
      "lon": -0.01933072445,
      "snapped": true,
      "distance_m": 0.9,
      "segment_id": 4658,
      "snap_point": [
        -0.019319,
        51.432916
      ],
      "edge_index": 297,
      "edge_t": 0.139316
    },
    {
      "crs": "BGN",
      "name": "Bridgend Rail Station",
      "lat": 51.50697351056,
      "lon": -3.57527568317,
      "snapped": true,
      "distance_m": 5.2,
      "segment_id": 3228,
      "snap_point": [
        -3.575207,
        51.506993
      ],
      "edge_index": 4,
      "edge_t": 0.696058
    },
    {
      "crs": "BGS",
      "name": "Bogston Rail Station",
      "lat": 55.93704156552,
      "lon": -4.71140097637,
      "snapped": true,
      "distance_m": 0.3,
      "segment_id": 2312,
      "snap_point": [
        -4.711402,
        55.937039
      ],
      "edge_index": 3,
      "edge_t": 0.712106
    },
    {
      "crs": "BGV",
      "name": "Barking Riverside",
      "lat": null,
      "lon": null,
      "snapped": null,
      "distance_m": null,
      "segment_id": null,
      "snap_point": null,
      "edge_index": null,
      "edge_t": null
    },
    {
      "crs": "BHC",
      "name": "Balloch Rail Station",
      "lat": 56.00293367261,
      "lon": -4.5834854062,
      "snapped": true,
      "distance_m": 50.8,
      "segment_id": 5943,
      "snap_point": [
        -4.583359,
        56.00248
      ],
      "edge_index": 0,
      "edge_t": 0
    },
    {
      "crs": "BHD",
      "name": "Brithdir Rail Station",
      "lat": 51.7103024867,
      "lon": -3.22872020561,
      "snapped": true,
      "distance_m": 27.8,
      "segment_id": 2027,
      "snap_point": [
        -3.228348,
        51.710397
      ],
      "edge_index": 22,
      "edge_t": 0.613177
    },
    {
      "crs": "BHG",
      "name": "Bathgate Rail Station",
      "lat": 55.89715220401,
      "lon": -3.636096071,
      "snapped": true,
      "distance_m": 9.3,
      "segment_id": 3384,
      "snap_point": [
        -3.636182,
        55.897084
      ],
      "edge_index": 222,
      "edge_t": 0.122232
    },
    {
      "crs": "BHI",
      "name": "Birmingham International Rail Station",
      "lat": 52.45080697192,
      "lon": -1.72585666561,
      "snapped": true,
      "distance_m": 16,
      "segment_id": 2725,
      "snap_point": [
        -1.725675,
        52.450898
      ],
      "edge_index": 7,
      "edge_t": 0.096369
    },
    {
      "crs": "BHK",
      "name": "Bush Hill Park Rail Station",
      "lat": 51.64151853929,
      "lon": -0.06922103243,
      "snapped": true,
      "distance_m": 0.7,
      "segment_id": 5192,
      "snap_point": [
        -0.069212,
        51.641522
      ],
      "edge_index": 16,
      "edge_t": 0.742538
    },
    {
      "crs": "BHM",
      "name": "Birmingham New Street Rail Station",
      "lat": 52.47781838678,
      "lon": -1.900205346,
      "snapped": true,
      "distance_m": 0.2,
      "segment_id": 718,
      "snap_point": [
        -1.900205,
        52.47782
      ],
      "edge_index": 8,
      "edge_t": 0.391883
    },
    {
      "crs": "BHO",
      "name": "Blackhorse Road Rail Station",
      "lat": 51.58660548252,
      "lon": -0.04123566031,
      "snapped": true,
      "distance_m": 0.1,
      "segment_id": 2514,
      "snap_point": [
        -0.041236,
        51.586606
      ],
      "edge_index": 149,
      "edge_t": 0.550409
    },
    {
      "crs": "BHR",
      "name": "Builth Road Rail Station",
      "lat": 52.16932219374,
      "lon": -3.42703258703,
      "snapped": true,
      "distance_m": 0.2,
      "segment_id": 2037,
      "snap_point": [
        -3.427035,
        52.169323
      ],
      "edge_index": 91,
      "edge_t": 0.170196
    },
    {
      "crs": "BHS",
      "name": "Brockholes Rail Station",
      "lat": 53.59697180598,
      "lon": -1.76969121826,
      "snapped": true,
      "distance_m": 1.9,
      "segment_id": 1832,
      "snap_point": [
        -1.769713,
        53.59696
      ],
      "edge_index": 28,
      "edge_t": 0.450889
    },
    {
      "crs": "BIA",
      "name": "Bishop Auckland Rail Station",
      "lat": 54.6571952683,
      "lon": -1.6777149104,
      "snapped": true,
      "distance_m": 0.4,
      "segment_id": 4570,
      "snap_point": [
        -1.677715,
        54.657199
      ],
      "edge_index": 42,
      "edge_t": 0.977758
    },
    {
      "crs": "BIB",
      "name": "Bishop's Lydeard Rail Station",
      "lat": 51.05458641664,
      "lon": -3.19432975928,
      "snapped": true,
      "distance_m": 4,
      "segment_id": 594,
      "snap_point": [
        -3.194385,
        51.054576
      ],
      "edge_index": 152,
      "edge_t": 0.963909
    },
    {
      "crs": "BIC",
      "name": "Billericay Rail Station",
      "lat": 51.62888366054,
      "lon": 0.41862972179,
      "snapped": false,
      "distance_m": 4719.7,
      "segment_id": 5213,
      "snap_point": [
        0.370538,
        51.659192
      ],
      "edge_index": 643,
      "edge_t": 0.143256
    },
    {
      "crs": "BID",
      "name": "Bidston Rail Station",
      "lat": 53.40913653201,
      "lon": -3.07856057923,
      "snapped": true,
      "distance_m": 19.6,
      "segment_id": 2083,
      "snap_point": [
        -3.078595,
        53.409313
      ],
      "edge_index": 18,
      "edge_t": 0.214309
    },
    {
      "crs": "BIF",
      "name": "Barrow-in-Furness Rail Station",
      "lat": 54.11900014196,
      "lon": -3.22612033522,
      "snapped": true,
      "distance_m": 5.9,
      "segment_id": 3021,
      "snap_point": [
        -3.226054,
        54.119036
      ],
      "edge_index": 1660,
      "edge_t": 0.791839
    },
    {
      "crs": "BIG",
      "name": "Billingshurst Rail Station",
      "lat": 51.01520447652,
      "lon": -0.45030215378,
      "snapped": true,
      "distance_m": 14.1,
      "segment_id": 1420,
      "snap_point": [
        -0.45027,
        51.015079
      ],
      "edge_index": 291,
      "edge_t": 0.540782
    },
    {
      "crs": "BIK",
      "name": "Birkbeck Rail Station",
      "lat": 51.40389159871,
      "lon": -0.05573865815,
      "snapped": true,
      "distance_m": 8.8,
      "segment_id": 6096,
      "snap_point": [
        -0.055661,
        51.403828
      ],
      "edge_index": 11,
      "edge_t": 0.895979
    },
    {
      "crs": "BIL",
      "name": "Billingham Rail Station",
      "lat": 54.60560609915,
      "lon": -1.27971955308,
      "snapped": true,
      "distance_m": 3.8,
      "segment_id": 4800,
      "snap_point": [
        -1.279679,
        54.605581
      ],
      "edge_index": 92,
      "edge_t": 0.188255
    },
    {
      "crs": "BIN",
      "name": "Bingham Rail Station",
      "lat": 52.954190664,
      "lon": -0.95154325118,
      "snapped": true,
      "distance_m": 2.5,
      "segment_id": 3128,
      "snap_point": [
        -0.951541,
        52.954213
      ],
      "edge_index": 112,
      "edge_t": 0.942862
    },
    {
      "crs": "BIO",
      "name": "Baillieston Rail Station",
      "lat": 55.84450099237,
      "lon": -4.11369840014,
      "snapped": true,
      "distance_m": 0.9,
      "segment_id": 2468,
      "snap_point": [
        -4.113694,
        55.844494
      ],
      "edge_index": 69,
      "edge_t": 0.866785
    },
    {
      "crs": "BIP",
      "name": "Bishopstone Rail Station",
      "lat": 50.7801435316,
      "lon": 0.08275700866,
      "snapped": true,
      "distance_m": 21.4,
      "segment_id": 1273,
      "snap_point": [
        0.082591,
        50.779982
      ],
      "edge_index": 19,
      "edge_t": 0.983967
    },
    {
      "crs": "BIS",
      "name": "Bishops Stortford Rail Station",
      "lat": 51.86669138211,
      "lon": 0.16489419614,
      "snapped": true,
      "distance_m": 16.9,
      "segment_id": 5261,
      "snap_point": [
        0.165118,
        51.866753
      ],
      "edge_index": 20,
      "edge_t": 0.11978
    },
    {
      "crs": "BIT",
      "name": "Bicester Village Rail Station",
      "lat": 51.8930234244,
      "lon": -1.14876413306,
      "snapped": true,
      "distance_m": 2.9,
      "segment_id": 986,
      "snap_point": [
        -1.14873,
        51.893008
      ],
      "edge_index": 35,
      "edge_t": 0.461753
    },
    {
      "crs": "BIW",
      "name": "Biggleswade Rail Station",
      "lat": 52.08467984862,
      "lon": -0.26118711415,
      "snapped": true,
      "distance_m": 16.2,
      "segment_id": 1623,
      "snap_point": [
        -0.260952,
        52.084694
      ],
      "edge_index": 167,
      "edge_t": 0.059588
    },
    {
      "crs": "BIY",
      "name": "Bingley Rail Station",
      "lat": 53.84861409196,
      "lon": -1.83732228587,
      "snapped": true,
      "distance_m": 13.1,
      "segment_id": 3263,
      "snap_point": [
        -1.837162,
        53.848685
      ],
      "edge_index": 641,
      "edge_t": 0.028101
    },
    {
      "crs": "BKA",
      "name": "Bookham Rail Station",
      "lat": 51.28873865847,
      "lon": -0.38402060641,
      "snapped": true,
      "distance_m": 5.9,
      "segment_id": 4992,
      "snap_point": [
        -0.384042,
        51.28879
      ],
      "edge_index": 44,
      "edge_t": 0.64435
    },
    {
      "crs": "BKC",
      "name": "Birkenhead Central Rail Station",
      "lat": 53.38831339142,
      "lon": -3.02082065372,
      "snapped": true,
      "distance_m": 0.2,
      "segment_id": 2091,
      "snap_point": [
        -3.020818,
        53.388313
      ],
      "edge_index": 13,
      "edge_t": 0.583975
    },
    {
      "crs": "BKD",
      "name": "Blakedown Rail Station",
      "lat": 52.40640078976,
      "lon": -2.17686538073,
      "snapped": true,
      "distance_m": 0.5,
      "segment_id": 959,
      "snap_point": [
        -2.176871,
        52.406403
      ],
      "edge_index": 951,
      "edge_t": 0.569568
    },
    {
      "crs": "BKG",
      "name": "Barking Rail Station",
      "lat": 51.53949471555,
      "lon": 0.08090251386,
      "snapped": true,
      "distance_m": 1.3,
      "segment_id": 5572,
      "snap_point": [
        0.080914,
        51.539504
      ],
      "edge_index": 115,
      "edge_t": 0.016171
    },
    {
      "crs": "BKH",
      "name": "Blackheath Rail Station",
      "lat": 51.46579624108,
      "lon": 0.00887195566,
      "snapped": true,
      "distance_m": 1.3,
      "segment_id": 5081,
      "snap_point": [
        0.008875,
        51.465785
      ],
      "edge_index": 48,
      "edge_t": 0.061509
    },
    {
      "crs": "BKJ",
      "name": "Beckenham Junction Rail Station",
      "lat": 51.41103510697,
      "lon": -0.02581274155,
      "snapped": true,
      "distance_m": 1,
      "segment_id": 4639,
      "snap_point": [
        -0.025815,
        51.411026
      ],
      "edge_index": 128,
      "edge_t": 0.696948
    },
    {
      "crs": "BKL",
      "name": "Bickley Rail Station",
      "lat": 51.40010421452,
      "lon": 0.04524062672,
      "snapped": true,
      "distance_m": 0.8,
      "segment_id": 4647,
      "snap_point": [
        0.045242,
        51.400097
      ],
      "edge_index": 59,
      "edge_t": 0.356836
    },
    {
      "crs": "BKM",
      "name": "Berkhamsted Rail Station",
      "lat": 51.76313385488,
      "lon": -0.56201289972,
      "snapped": true,
      "distance_m": 18.8,
      "segment_id": 2061,
      "snap_point": [
        -0.561915,
        51.763293
      ],
      "edge_index": 680,
      "edge_t": 0.725113
    },
    {
      "crs": "BKN",
      "name": "Birkenhead North Rail Station",
      "lat": 53.40443464169,
      "lon": -3.05753314281,
      "snapped": true,
      "distance_m": 3.8,
      "segment_id": 2072,
      "snap_point": [
        -3.057501,
        53.404463
      ],
      "edge_index": 82,
      "edge_t": 0.673299
    },
    {
      "crs": "BKO",
      "name": "Brookwood Rail Station",
      "lat": 51.30375792694,
      "lon": -0.63574781605,
      "snapped": true,
      "distance_m": 13.2,
      "segment_id": 5099,
      "snap_point": [
        -0.63573,
        51.303639
      ],
      "edge_index": 69,
      "edge_t": 0.95846
    },
    {
      "crs": "BKP",
      "name": "Birkenhead Park Rail Station",
      "lat": 53.39740532129,
      "lon": -3.0391007784,
      "snapped": true,
      "distance_m": 6.5,
      "segment_id": 2079,
      "snap_point": [
        -3.039058,
        53.397458
      ],
      "edge_index": 68,
      "edge_t": 0.331415
    },
    {
      "crs": "BKQ",
      "name": "Birkenhead Hamilton Square Rail Station",
      "lat": 53.39469350167,
      "lon": -3.01367966331,
      "snapped": true,
      "distance_m": 3.8,
      "segment_id": 2073,
      "snap_point": [
        -3.013642,
        53.394668
      ],
      "edge_index": 108,
      "edge_t": 0
    },
    {
      "crs": "BKR",
      "name": "Blackridge Rail Station",
      "lat": 55.88425139381,
      "lon": -3.75079666851,
      "snapped": true,
      "distance_m": 3,
      "segment_id": 2441,
      "snap_point": [
        -3.75081,
        55.884277
      ],
      "edge_index": 313,
      "edge_t": 0.822807
    },
    {
      "crs": "BKS",
      "name": "Bekesbourne Rail Station",
      "lat": 51.26135755917,
      "lon": 1.13670784046,
      "snapped": true,
      "distance_m": 17.4,
      "segment_id": 4733,
      "snap_point": [
        1.136805,
        51.261502
      ],
      "edge_index": 325,
      "edge_t": 0.739696
    },
    {
      "crs": "BKT",
      "name": "Blake Street Rail Station",
      "lat": 52.60488473632,
      "lon": -1.84491438218,
      "snapped": true,
      "distance_m": 5.8,
      "segment_id": 1206,
      "snap_point": [
        -1.844828,
        52.60489
      ],
      "edge_index": 140,
      "edge_t": 0.901618
    },
    {
      "crs": "BKW",
      "name": "Berkswell Rail Station",
      "lat": 52.39588092817,
      "lon": -1.6428402938,
      "snapped": true,
      "distance_m": 53.1,
      "segment_id": 2723,
      "snap_point": [
        -1.64245,
        52.396297
      ],
      "edge_index": 319,
      "edge_t": 0.04867
    },
    {
      "crs": "BLA",
      "name": "Blair Atholl Rail Station",
      "lat": 56.7655459781,
      "lon": -3.85022795996,
      "snapped": true,
      "distance_m": 23.8,
      "segment_id": 4178,
      "snap_point": [
        -3.850274,
        56.765332
      ],
      "edge_index": 7,
      "edge_t": 0.811686
    },
    {
      "crs": "BLB",
      "name": "Battlesbridge Rail Station",
      "lat": 51.62482540254,
      "lon": 0.56528563473,
      "snapped": false,
      "distance_m": 7904.6,
      "segment_id": 5553,
      "snap_point": [
        0.517345,
        51.559921
      ],
      "edge_index": 11,
      "edge_t": 1
    },
    {
      "crs": "BLD",
      "name": "Baildon Rail Station",
      "lat": 53.85022428912,
      "lon": -1.75363618902,
      "snapped": false,
      "distance_m": 758.9,
      "segment_id": 5532,
      "snap_point": [
        -1.746468,
        53.844841
      ],
      "edge_index": 17,
      "edge_t": 0.752451
    },
    {
      "crs": "BLE",
      "name": "Bramley (West Yorks) Rail Station",
      "lat": 53.80534873272,
      "lon": -1.63720617396,
      "snapped": true,
      "distance_m": 2,
      "segment_id": 1685,
      "snap_point": [
        -1.637194,
        53.805366
      ],
      "edge_index": 110,
      "edge_t": 0.92633
    },
    {
      "crs": "BLG",
      "name": "Bellgrove Rail Station",
      "lat": 55.85670421885,
      "lon": -4.22437393276,
      "snapped": true,
      "distance_m": 4.4,
      "segment_id": 2352,
      "snap_point": [
        -4.224391,
        55.856666
      ],
      "edge_index": 144,
      "edge_t": 0.492203
    },
    {
      "crs": "BLH",
      "name": "Bellshill Rail Station",
      "lat": 55.81706346181,
      "lon": -4.02449908366,
      "snapped": true,
      "distance_m": 1.5,
      "segment_id": 3865,
      "snap_point": [
        -4.0245,
        55.81705
      ],
      "edge_index": 42,
      "edge_t": 0.905648
    },
    {
      "crs": "BLI",
      "name": "Blyth Bebside Rail Station",
      "lat": 55.12486,
      "lon": -1.55711,
      "snapped": true,
      "distance_m": 8,
      "segment_id": 5858,
      "snap_point": [
        -1.556994,
        55.124887
      ],
      "edge_index": 60,
      "edge_t": 0.445019
    },
    {
      "crs": "BLK",
      "name": "Blackrod Rail Station",
      "lat": 53.59152198029,
      "lon": -2.5695239431,
      "snapped": true,
      "distance_m": 35.8,
      "segment_id": 3413,
      "snap_point": [
        -2.569938,
        53.591313
      ],
      "edge_index": 157,
      "edge_t": 0.931171
    },
    {
      "crs": "BLL",
      "name": "Bardon Mill Rail Station",
      "lat": 54.97449361588,
      "lon": -2.34650443635,
      "snapped": true,
      "distance_m": 11.2,
      "segment_id": 3160,
      "snap_point": [
        -2.346491,
        54.974594
      ],
      "edge_index": 720,
      "edge_t": 0.362646
    },
    {
      "crs": "BLM",
      "name": "Belmont Rail Station",
      "lat": 51.34381479967,
      "lon": -0.19885504531,
      "snapped": true,
      "distance_m": 1.7,
      "segment_id": 5622,
      "snap_point": [
        -0.198879,
        51.343817
      ],
      "edge_index": 48,
      "edge_t": 0.758103
    },
    {
      "crs": "BLN",
      "name": "Blundellsands & Crosby Rail Station",
      "lat": 53.48768343484,
      "lon": -3.03985977525,
      "snapped": true,
      "distance_m": 26.8,
      "segment_id": 5781,
      "snap_point": [
        -3.040199,
        53.48755
      ],
      "edge_index": 149,
      "edge_t": 0.002134
    },
    {
      "crs": "BLO",
      "name": "Blaydon Rail Station",
      "lat": 54.96578851561,
      "lon": -1.71258069635,
      "snapped": true,
      "distance_m": 13.9,
      "segment_id": 3160,
      "snap_point": [
        -1.71254,
        54.965912
      ],
      "edge_index": 171,
      "edge_t": 0.862647
    },
    {
      "crs": "BLP",
      "name": "Belper Rail Station",
      "lat": 53.02375839072,
      "lon": -1.48251034169,
      "snapped": true,
      "distance_m": 0,
      "segment_id": 2719,
      "snap_point": [
        -1.48251,
        53.023758
      ],
      "edge_index": 46,
      "edge_t": 0.89506
    },
    {
      "crs": "BLT",
      "name": "Blantyre Rail Station",
      "lat": 55.7973256008,
      "lon": -4.08697074349,
      "snapped": true,
      "distance_m": 0.6,
      "segment_id": 2375,
      "snap_point": [
        -4.086977,
        55.797321
      ],
      "edge_index": 99,
      "edge_t": 0.317014
    },
    {
      "crs": "BLV",
      "name": "Belle Vue Rail Station",
      "lat": 53.46237460502,
      "lon": -2.18050695949,
      "snapped": true,
      "distance_m": 1.7,
      "segment_id": 1589,
      "snap_point": [
        -2.180532,
        53.46237
      ],
      "edge_index": 16,
      "edge_t": 0.83539
    },
    {
      "crs": "BLW",
      "name": "Bulwell Rail Station",
      "lat": 52.99969548849,
      "lon": -1.19623043989,
      "snapped": true,
      "distance_m": 49.7,
      "segment_id": 1240,
      "snap_point": [
        -1.195538,
        52.999533
      ],
      "edge_index": 5,
      "edge_t": 0.091468
    },
    {
      "crs": "BLX",
      "name": "Bloxwich Rail Station",
      "lat": 52.6182002707,
      "lon": -2.01147782643,
      "snapped": true,
      "distance_m": 1.5,
      "segment_id": 1879,
      "snap_point": [
        -2.011458,
        52.618206
      ],
      "edge_index": 157,
      "edge_t": 0.712577
    },
    {
      "crs": "BLY",
      "name": "Bletchley Rail Station",
      "lat": 51.99533445318,
      "lon": -0.73632041809,
      "snapped": true,
      "distance_m": 0.7,
      "segment_id": 3448,
      "snap_point": [
        -0.73631,
        51.995336
      ],
      "edge_index": 585,
      "edge_t": 0.982554
    },
    {
      "crs": "BMB",
      "name": "Bamber Bridge Rail Station",
      "lat": 53.72686651197,
      "lon": -2.66077497771,
      "snapped": true,
      "distance_m": 2.3,
      "segment_id": 4121,
      "snap_point": [
        -2.660772,
        53.726888
      ],
      "edge_index": 102,
      "edge_t": 0.393112
    },
    {
      "crs": "BMC",
      "name": "Bromley Cross Rail Station",
      "lat": 53.61404075006,
      "lon": -2.41089878029,
      "snapped": true,
      "distance_m": 8.9,
      "segment_id": 3256,
      "snap_point": [
        -2.410774,
        53.61401
      ],
      "edge_index": 198,
      "edge_t": 0.652291
    },
    {
      "crs": "BMD",
      "name": "Brimsdown Rail Station",
      "lat": 51.65558336605,
      "lon": -0.03081734996,
      "snapped": true,
      "distance_m": 0.2,
      "segment_id": 5245,
      "snap_point": [
        -0.030815,
        51.655583
      ],
      "edge_index": 202,
      "edge_t": 0.974995
    },
    {
      "crs": "BME",
      "name": "Broome Rail Station",
      "lat": 52.42277157928,
      "lon": -2.88520749901,
      "snapped": true,
      "distance_m": 4.4,
      "segment_id": 2022,
      "snap_point": [
        -2.885164,
        52.422742
      ],
      "edge_index": 52,
      "edge_t": 0.805829
    },
    {
      "crs": "BMF",
      "name": "Broomfleet Rail Station",
      "lat": 53.74020822243,
      "lon": -0.67182831364,
      "snapped": true,
      "distance_m": 1.7,
      "segment_id": 1872,
      "snap_point": [
        -0.671834,
        53.740193
      ],
      "edge_index": 175,
      "edge_t": 0.737599
    },
    {
      "crs": "BMG",
      "name": "Barming Rail Station",
      "lat": 51.28489519974,
      "lon": 0.47895820334,
      "snapped": true,
      "distance_m": 16,
      "segment_id": 4668,
      "snap_point": [
        0.479104,
        51.284784
      ],
      "edge_index": 189,
      "edge_t": 0.79764
    },
    {
      "crs": "BMH",
      "name": "Bournemouth Rail Station",
      "lat": 50.72727332144,
      "lon": -1.86450294675,
      "snapped": true,
      "distance_m": 1.6,
      "segment_id": 5464,
      "snap_point": [
        -1.864514,
        50.727261
      ],
      "edge_index": 12,
      "edge_t": 0.23815
    },
    {
      "crs": "BML",
      "name": "Bramhall Rail Station",
      "lat": 53.36061266009,
      "lon": -2.16359260384,
      "snapped": true,
      "distance_m": 17.8,
      "segment_id": 769,
      "snap_point": [
        -2.163414,
        53.360733
      ],
      "edge_index": 18,
      "edge_t": 0.385716
    },
    {
      "crs": "BMN",
      "name": "Bromley North Rail Station",
      "lat": 51.40832772238,
      "lon": 0.01699272077,
      "snapped": true,
      "distance_m": 95.1,
      "segment_id": 5857,
      "snap_point": [
        0.017746,
        51.409047
      ],
      "edge_index": 4,
      "edge_t": 1
    },
    {
      "crs": "BMO",
      "name": "Birmingham Moor Street Rail Station",
      "lat": 52.4790792138,
      "lon": -1.89247250732,
      "snapped": true,
      "distance_m": 3.1,
      "segment_id": 953,
      "snap_point": [
        -1.892448,
        52.479103
      ],
      "edge_index": 10,
      "edge_t": 0.171081
    },
    {
      "crs": "BMP",
      "name": "Brampton (Cumbria) Rail Station",
      "lat": 54.93239027981,
      "lon": -2.7029471921,
      "snapped": true,
      "distance_m": 0.6,
      "segment_id": 3160,
      "snap_point": [
        -2.702943,
        54.932385
      ],
      "edge_index": 1108,
      "edge_t": 0.335934
    },
    {
      "crs": "BMR",
      "name": "Bromborough Rake Rail Station",
      "lat": 53.32990619305,
      "lon": -2.98946892637,
      "snapped": true,
      "distance_m": 38.2,
      "segment_id": 2053,
      "snap_point": [
        -2.99003,
        53.32983
      ],
      "edge_index": 21,
      "edge_t": 0.11193
    },
    {
      "crs": "BMS",
      "name": "Bromley South Rail Station",
      "lat": 51.39997631561,
      "lon": 0.01734411348,
      "snapped": true,
      "distance_m": 1.7,
      "segment_id": 4664,
      "snap_point": [
        0.017347,
        51.399992
      ],
      "edge_index": 40,
      "edge_t": 0.823973
    },
    {
      "crs": "BMT",
      "name": "Bedminster Rail Station",
      "lat": 51.44008788321,
      "lon": -2.594148945,
      "snapped": true,
      "distance_m": 27,
      "segment_id": 4279,
      "snap_point": [
        -2.594359,
        51.440293
      ],
      "edge_index": 169,
      "edge_t": 0.637917
    },
    {
      "crs": "BMV",
      "name": "Bromsgrove Rail Station",
      "lat": 52.32060414512,
      "lon": -2.04977859201,
      "snapped": true,
      "distance_m": 4.6,
      "segment_id": 726,
      "snap_point": [
        -2.049723,
        52.32058
      ],
      "edge_index": 15,
      "edge_t": 0.048584
    },
    {
      "crs": "BMY",
      "name": "Bramley (Hants) Rail Station",
      "lat": 51.33029324397,
      "lon": -1.06100267378,
      "snapped": true,
      "distance_m": 2.4,
      "segment_id": 387,
      "snap_point": [
        -1.06097,
        51.330299
      ],
      "edge_index": 102,
      "edge_t": 0.402176
    },
    {
      "crs": "BNA",
      "name": "Burnage Rail Station",
      "lat": 53.42116681578,
      "lon": -2.21567811439,
      "snapped": true,
      "distance_m": 1.7,
      "segment_id": 791,
      "snap_point": [
        -2.215702,
        53.421171
      ],
      "edge_index": 80,
      "edge_t": 0.174129
    },
    {
      "crs": "BNC",
      "name": "Burnley Central Rail Station",
      "lat": 53.79351214201,
      "lon": -2.24497101878,
      "snapped": true,
      "distance_m": 3.3,
      "segment_id": 5765,
      "snap_point": [
        -2.245008,
        53.793532
      ],
      "edge_index": 9,
      "edge_t": 0.325893
    },
    {
      "crs": "BND",
      "name": "Brandon Rail Station",
      "lat": 52.4540074224,
      "lon": 0.62473186797,
      "snapped": true,
      "distance_m": 10.4,
      "segment_id": 592,
      "snap_point": [
        0.624743,
        52.453914
      ],
      "edge_index": 378,
      "edge_t": 0.528201
    },
    {
      "crs": "BNE",
      "name": "Bourne End Rail Station",
      "lat": 51.57711790146,
      "lon": -0.71047346012,
      "snapped": true,
      "distance_m": 7.3,
      "segment_id": 5811,
      "snap_point": [
        -0.710422,
        51.57706
      ],
      "edge_index": 2,
      "edge_t": 0.966412
    },
    {
      "crs": "BNF",
      "name": "Briton Ferry Rail Station",
      "lat": 51.6378959702,
      "lon": -3.81925224618,
      "snapped": true,
      "distance_m": 51.5,
      "segment_id": 1962,
      "snap_point": [
        -3.819992,
        51.637953
      ],
      "edge_index": 272,
      "edge_t": 0.331435
    },
    {
      "crs": "BNG",
      "name": "Bangor (Gwynedd) Rail Station",
      "lat": 53.22228257233,
      "lon": -4.13587993187,
      "snapped": true,
      "distance_m": 42.6,
      "segment_id": 2157,
      "snap_point": [
        -4.135628,
        53.222637
      ],
      "edge_index": 319,
      "edge_t": 0.889402
    },
    {
      "crs": "BNH",
      "name": "Barnehurst Rail Station",
      "lat": 51.46495912931,
      "lon": 0.15964630799,
      "snapped": true,
      "distance_m": 5.1,
      "segment_id": 5081,
      "snap_point": [
        0.159651,
        51.465005
      ],
      "edge_index": 180,
      "edge_t": 0.18203
    },
    {
      "crs": "BNI",
      "name": "Barnes Bridge Rail Station",
      "lat": 51.47200852133,
      "lon": -0.25263015589,
      "snapped": true,
      "distance_m": 1.7,
      "segment_id": 5184,
      "snap_point": [
        -0.252647,
        51.471998
      ],
      "edge_index": 11,
      "edge_t": 0.994345
    },
    {
      "crs": "BNL",
      "name": "Barnhill Rail Station",
      "lat": 55.87748980519,
      "lon": -4.2230048768,
      "snapped": true,
      "distance_m": 0.1,
      "segment_id": 5795,
      "snap_point": [
        -4.223004,
        55.87749
      ],
      "edge_index": 20,
      "edge_t": 0.196246
    },
    {
      "crs": "BNM",
      "name": "Burnham (Berks) Rail Station",
      "lat": 51.52350552292,
      "lon": -0.64637373865,
      "snapped": true,
      "distance_m": 11.3,
      "segment_id": 5496,
      "snap_point": [
        -0.6464,
        51.523404
      ],
      "edge_index": 72,
      "edge_t": 0.074624
    },
    {
      "crs": "BNP",
      "name": "Barnstaple Rail Station",
      "lat": 51.07396953324,
      "lon": -4.06311685349,
      "snapped": true,
      "distance_m": 27,
      "segment_id": 1798,
      "snap_point": [
        -4.063357,
        51.073778
      ],
      "edge_index": 0,
      "edge_t": 0
    },
    {
      "crs": "BNR",
      "name": "Brockley Whins Rail Station",
      "lat": 54.95954405686,
      "lon": -1.46135324951,
      "snapped": true,
      "distance_m": 7.3,
      "segment_id": 1300,
      "snap_point": [
        -1.461338,
        54.959478
      ],
      "edge_index": 97,
      "edge_t": 0.898326
    },
    {
      "crs": "BNS",
      "name": "Barnes Rail Station",
      "lat": 51.46708608626,
      "lon": -0.24216421148,
      "snapped": true,
      "distance_m": 3.1,
      "segment_id": 5173,
      "snap_point": [
        -0.242177,
        51.467059
      ],
      "edge_index": 181,
      "edge_t": 0.886269
    },
    {
      "crs": "BNT",
      "name": "Brinnington Rail Station",
      "lat": 53.4321164629,
      "lon": -2.13511987886,
      "snapped": true,
      "distance_m": 18.4,
      "segment_id": 1589,
      "snap_point": [
        -2.134973,
        53.432258
      ],
      "edge_index": 89,
      "edge_t": 0.891474
    },
    {
      "crs": "BNV",
      "name": "Banavie Rail Station",
      "lat": 56.84330826717,
      "lon": -5.09542558529,
      "snapped": true,
      "distance_m": 21.1,
      "segment_id": 3403,
      "snap_point": [
        -5.095177,
        56.843441
      ],
      "edge_index": 55,
      "edge_t": 0.500128
    },
    {
      "crs": "BNW",
      "name": "Bootle New Strand Rail Station",
      "lat": 53.45338857285,
      "lon": -2.99474724324,
      "snapped": true,
      "distance_m": 9.3,
      "segment_id": 5782,
      "snap_point": [
        -2.994607,
        53.453388
      ],
      "edge_index": 67,
      "edge_t": 0.87893
    },
    {
      "crs": "BNY",
      "name": "Barnsley Rail Station",
      "lat": 53.5543007868,
      "lon": -1.47716468299,
      "snapped": true,
      "distance_m": 8.2,
      "segment_id": 1738,
      "snap_point": [
        -1.477288,
        53.554297
      ],
      "edge_index": 369,
      "edge_t": 0.828174
    },