{
  "type": "FeatureCollection",
  "features": [
    { "type": "Feature", "geometry": { "type": "Point", "coordinates": [-0.1755, 51.5154] }, "properties": { "name": "London Paddington", "crs": "PAD", "toc": "GWR" } },
    { "type": "Feature", "geometry": { "type": "Point", "coordinates": [-0.1238, 51.5308] }, "properties": { "name": "London King's Cross", "crs": "KGX", "toc": "LNER" } },
    { "type": "Feature", "geometry": { "type": "Point", "coordinates": [-0.1338, 51.5283] }, "properties": { "name": "London Euston", "crs": "EUS", "toc": "Avanti West Coast" } },
    { "type": "Feature", "geometry": { "type": "Point", "coordinates": [-0.1143, 51.5036] }, "properties": { "name": "London Waterloo", "crs": "WAT", "toc": "South Western Railway" } },
    { "type": "Feature", "geometry": { "type": "Point", "coordinates": [-0.1441, 51.4952] }, "properties": { "name": "London Victoria", "crs": "VIC", "toc": "Southern" } },
    { "type": "Feature", "geometry": { "type": "Point", "coordinates": [-0.0864, 51.5052] }, "properties": { "name": "London Bridge", "crs": "LBG", "toc": "Southeastern" } },
    { "type": "Feature", "geometry": { "type": "Point", "coordinates": [-2.2309, 53.4773] }, "properties": { "name": "Manchester Piccadilly", "crs": "MAN", "toc": "Northern" } },
    { "type": "Feature", "geometry": { "type": "Point", "coordinates": [-2.2426, 53.4878] }, "properties": { "name": "Manchester Victoria", "crs": "MCV", "toc": "Northern" } },
    { "type": "Feature", "geometry": { "type": "Point", "coordinates": [-1.9001, 52.4778] }, "properties": { "name": "Birmingham New Street", "crs": "BHM", "toc": "West Midlands Railway" } },
    { "type": "Feature", "geometry": { "type": "Point", "coordinates": [-1.7257, 52.4508] }, "properties": { "name": "Birmingham International", "crs": "BHI", "toc": "CrossCountry" } },
    { "type": "Feature", "geometry": { "type": "Point", "coordinates": [-1.5487, 53.7958] }, "properties": { "name": "Leeds", "crs": "LDS", "toc": "Northern" } },
    { "type": "Feature", "geometry": { "type": "Point", "coordinates": [-1.4628, 53.3786] }, "properties": { "name": "Sheffield", "crs": "SHF", "toc": "Northern" } },
    { "type": "Feature", "geometry": { "type": "Point", "coordinates": [-3.1895, 55.9521] }, "properties": { "name": "Edinburgh Waverley", "crs": "EDB", "toc": "ScotRail" } },
    { "type": "Feature", "geometry": { "type": "Point", "coordinates": [-4.2572, 55.8589] }, "properties": { "name": "Glasgow Central", "crs": "GLC", "toc": "ScotRail" } },
    { "type": "Feature", "geometry": { "type": "Point", "coordinates": [-4.2504, 55.8629] }, "properties": { "name": "Glasgow Queen Street", "crs": "GLQ", "toc": "ScotRail" } },
    { "type": "Feature", "geometry": { "type": "Point", "coordinates": [-2.9779, 53.4075] }, "properties": { "name": "Liverpool Lime Street", "crs": "LIV", "toc": "Avanti West Coast" } },
    { "type": "Feature", "geometry": { "type": "Point", "coordinates": [-2.5813, 51.4491] }, "properties": { "name": "Bristol Temple Meads", "crs": "BRI", "toc": "GWR" } },
    { "type": "Feature", "geometry": { "type": "Point", "coordinates": [-1.6172, 54.9682] }, "properties": { "name": "Newcastle", "crs": "NCL", "toc": "LNER" } },
    { "type": "Feature", "geometry": { "type": "Point", "coordinates": [-1.1465, 52.9476] }, "properties": { "name": "Nottingham", "crs": "NOT", "toc": "East Midlands Railway" } },
    { "type": "Feature", "geometry": { "type": "Point", "coordinates": [-1.1257, 52.6336] }, "properties": { "name": "Leicester", "crs": "LEI", "toc": "East Midlands Railway" } },
    { "type": "Feature", "geometry": { "type": "Point", "coordinates": [-1.5131, 52.4005] }, "properties": { "name": "Coventry", "crs": "COV", "toc": "Avanti West Coast" } },
    { "type": "Feature", "geometry": { "type": "Point", "coordinates": [-1.4735, 52.9161] }, "properties": { "name": "Derby", "crs": "DBY", "toc": "East Midlands Railway" } },
    { "type": "Feature", "geometry": { "type": "Point", "coordinates": [-1.0931, 53.9581] }, "properties": { "name": "York", "crs": "YRK", "toc": "LNER" } },
    { "type": "Feature", "geometry": { "type": "Point", "coordinates": [-0.2502, 52.5741] }, "properties": { "name": "Peterborough", "crs": "PBO", "toc": "LNER" } },
    { "type": "Feature", "geometry": { "type": "Point", "coordinates": [0.1904, 52.6270] }, "properties": { "name": "Norwich", "crs": "NRW", "toc": "Greater Anglia" } },
    { "type": "Feature", "geometry": { "type": "Point", "coordinates": [0.1373, 52.1940] }, "properties": { "name": "Cambridge", "crs": "CBG", "toc": "Greater Anglia" } },
    { "type": "Feature", "geometry": { "type": "Point", "coordinates": [-1.2696, 51.7535] }, "properties": { "name": "Oxford", "crs": "OXF", "toc": "GWR" } },
    { "type": "Feature", "geometry": { "type": "Point", "coordinates": [-0.9726, 51.4586] }, "properties": { "name": "Reading", "crs": "RDG", "toc": "GWR" } },
    { "type": "Feature", "geometry": { "type": "Point", "coordinates": [-1.4137, 50.9090] }, "properties": { "name": "Southampton Central", "crs": "SOU", "toc": "South Western Railway" } },
    { "type": "Feature", "geometry": { "type": "Point", "coordinates": [-0.1415, 50.8290] }, "properties": { "name": "Brighton", "crs": "BTN", "toc": "Southern" } },
    { "type": "Feature", "geometry": { "type": "Point", "coordinates": [-3.1789, 51.4756] }, "properties": { "name": "Cardiff Central", "crs": "CDF", "toc": "Transport for Wales" } },
    { "type": "Feature", "geometry": { "type": "Point", "coordinates": [-3.9440, 51.6210] }, "properties": { "name": "Swansea", "crs": "SWA", "toc": "Transport for Wales" } },
    { "type": "Feature", "geometry": { "type": "Point", "coordinates": [-3.5358, 50.7277] }, "properties": { "name": "Exeter St Davids", "crs": "EXD", "toc": "GWR" } },
    { "type": "Feature", "geometry": { "type": "Point", "coordinates": [-4.1426, 50.3779] }, "properties": { "name": "Plymouth", "crs": "PLY", "toc": "GWR" } },
    { "type": "Feature", "geometry": { "type": "Point", "coordinates": [-2.0981, 57.1437] }, "properties": { "name": "Aberdeen", "crs": "ABD", "toc": "ScotRail" } },
    { "type": "Feature", "geometry": { "type": "Point", "coordinates": [-2.9706, 56.4545] }, "properties": { "name": "Dundee", "crs": "DEE", "toc": "ScotRail" } },
    { "type": "Feature", "geometry": { "type": "Point", "coordinates": [-4.2248, 57.4797] }, "properties": { "name": "Inverness", "crs": "INV", "toc": "ScotRail" } },
    { "type": "Feature", "geometry": { "type": "Point", "coordinates": [-3.9364, 56.1175] }, "properties": { "name": "Stirling", "crs": "STG", "toc": "ScotRail" } },
    { "type": "Feature", "geometry": { "type": "Point", "coordinates": [-2.7088, 53.7571] }, "properties": { "name": "Preston", "crs": "PRE", "toc": "Avanti West Coast" } },
    { "type": "Feature", "geometry": { "type": "Point", "coordinates": [-2.8070, 54.0472] }, "properties": { "name": "Lancaster", "crs": "LAN", "toc": "Avanti West Coast" } },
    { "type": "Feature", "geometry": { "type": "Point", "coordinates": [-2.9317, 54.8912] }, "properties": { "name": "Carlisle", "crs": "CAR", "toc": "Avanti West Coast" } },
    { "type": "Feature", "geometry": { "type": "Point", "coordinates": [-2.4327, 53.0879] }, "properties": { "name": "Crewe", "crs": "CRE", "toc": "Avanti West Coast" } },
    { "type": "Feature", "geometry": { "type": "Point", "coordinates": [-2.8795, 53.1913] }, "properties": { "name": "Chester", "crs": "CTR", "toc": "Transport for Wales" } },
    { "type": "Feature", "geometry": { "type": "Point", "coordinates": [-2.7516, 52.7097] }, "properties": { "name": "Shrewsbury", "crs": "SHR", "toc": "Transport for Wales" } },
    { "type": "Feature", "geometry": { "type": "Point", "coordinates": [-2.2156, 52.1932] }, "properties": { "name": "Worcester Shrub Hill", "crs": "WOS", "toc": "West Midlands Railway" } },
    { "type": "Feature", "geometry": { "type": "Point", "coordinates": [-2.7152, 52.0564] }, "properties": { "name": "Hereford", "crs": "HFD", "toc": "Transport for Wales" } },
    { "type": "Feature", "geometry": { "type": "Point", "coordinates": [-1.7847, 51.5653] }, "properties": { "name": "Swindon", "crs": "SWI", "toc": "GWR" } },
    { "type": "Feature", "geometry": { "type": "Point", "coordinates": [-2.3587, 51.3782] }, "properties": { "name": "Bath Spa", "crs": "BTH", "toc": "GWR" } },
    { "type": "Feature", "geometry": { "type": "Point", "coordinates": [-0.5714, 51.2366] }, "properties": { "name": "Guildford", "crs": "GLD", "toc": "South Western Railway" } },
    { "type": "Feature", "geometry": { "type": "Point", "coordinates": [1.1456, 52.0534] }, "properties": { "name": "Ipswich", "crs": "IPS", "toc": "Greater Anglia" } },
    { "type": "Feature", "geometry": { "type": "Point", "coordinates": [1.3134, 51.1279] }, "properties": { "name": "Dover Priory", "crs": "DVP", "toc": "Southeastern" } },
    { "type": "Feature", "geometry": { "type": "Point", "coordinates": [-4.6320, 53.3090] }, "properties": { "name": "Holyhead", "crs": "HHD", "toc": "Transport for Wales" } },
    { "type": "Feature", "geometry": { "type": "Point", "coordinates": [-5.5348, 50.1186] }, "properties": { "name": "Penzance", "crs": "PNZ", "toc": "GWR" } }
  ]
}
